NMEA,$GPGGA,164834.000,5944.5709,N,01046.2625,E,1,28,0.4,89.8,M,40.7,M,,*63,1724172514000
NMEA,$PSAMSA,164834.000,5944.5709,N,01046.2625,E,1,M,,*63,1724172514000
NMEA,$GPGLL,5944.5709,N,01046.2625,E,164834.000,A,A*52,1724172514000
NMEA,$GPVTG,0.0,T,,M,0.0,N,0.0,K,A*0D,1724172514000
NMEA,$GPGSV,4,1,14,05,51,231,38,07,36,072,31,13,61,271,41,14,37,149,30*7C,1724172514000
NMEA,$GPGSV,4,2,14,15,29,288,35,18,21,310,34,20,30,201,23,22,20,165,29*76,1724172514000
NMEA,$GPGSV,4,3,14,27,13,017,24,30,66,096,32*71,1724172514000
NMEA,$GPGSV,4,4,14,14,37,149,24,18,21,310,36,27,13,017,25,30,66,096,29,8*6F,1724172514000
NMEA,$GLGSV,2,1,06,66,39,134,34,67,81,281,41,76,59,062,40,77,58,175,34*69,1724172514000
NMEA,$GLGSV,2,2,06,83,11,284,23,84,23,346,26*6F,1724172514000
NMEA,$GAGSV,4,1,13,102,48,098,33,107,68,266,36,108,51,119,32,112,09,357,19*69,1724172514000
NMEA,$GAGSV,4,2,13,125,23,040,33,130,26,162,19,133,25,305,36*61,1724172514000
NMEA,$GAGSV,4,3,13,102,48,098,32,107,68,266,35,108,51,119,28,125,23,040,32,1*7F,1724172514000
NMEA,$GAGSV,4,4,13,130,26,162,14,133,25,305,38,1*7A,1724172514000
NMEA,$BDGSV,3,1,08,207,23,074,26,209,15,069,23,210,23,087,35,221,21,146,20*68,1724172514000
NMEA,$BDGSV,3,2,08,224,24,206,27,226,65,151,29*69,1724172514000
NMEA,$BDGSV,3,3,08,224,24,206,24,226,65,151,26,5*7D,1724172514000
NMEA,$GPGSA,A,3,05,07,13,15,20,22,,,,,,,0.8,0.4,0.8*30,1724172514000
NMEA,$GNGSA,A,3,66,67,76,77,83,84,,,,,,,0.8,0.4,0.8*2F,1724172514000
NMEA,$GAGSA,A,3,130,,,,,,,,,,,,0.8,0.4,0.8*15,1724172514000
NMEA,$BDGSA,A,3,207,209,210,221,,,,,,,,,0.8,0.4,0.8*2B,1724172514000
NMEA,$PSSGR,GSA,A,3,14,18,27,30,,,,,,,,,0.8,0.4,0.8,1,8*4B,1724172514000
NMEA,$PSSGR,GSA,A,3,102,107,108,125,133,,,,,,,,0.8,0.4,0.8,3,1*71,1724172514000
NMEA,$PSSGR,GSA,A,3,224,226,,,,,,,,,,,0.8,0.4,0.8,4,5*4B,1724172514000
NMEA,$GPRMC,164834.000,A,5944.5709,N,01046.2625,E,0.0,0.0,200824,,,A*69,1724172514000
NMEA,$PSAMCLK,2328,23333200,28,32098,2056,233332000*4B,1724172514000
NMEA,$GPGGA,164835.000,5944.5708,N,01046.2624,E,1,28,0.4,89.6,M,40.7,M,,*6C,1724172515000
NMEA,$PSAMSA,164835.000,5944.5708,N,01046.2624,E,1,M,,*62,1724172515000
NMEA,$GPGLL,5944.5708,N,01046.2624,E,164835.000,A,A*53,1724172515000
NMEA,$GPVTG,0.0,T,,M,0.0,N,0.0,K,A*0D,1724172515000
NMEA,$GPGSV,4,1,14,05,51,231,38,07,36,072,31,13,61,271,41,14,37,149,30*7C,1724172515000
NMEA,$GPGSV,4,2,14,15,29,288,35,18,21,310,33,20,30,201,23,22,20,165,29*71,1724172515000
NMEA,$GPGSV,4,3,14,27,13,017,24,30,66,096,32*71,1724172515000
NMEA,$GPGSV,4,4,14,14,37,149,24,18,21,310,36,27,13,017,25,30,66,096,30,8*67,1724172515000
NMEA,$GLGSV,2,1,06,66,39,134,34,67,81,281,40,76,59,062,40,77,58,175,34*68,1724172515000
NMEA,$GLGSV,2,2,06,83,11,284,23,84,23,346,26*6F,1724172515000
NMEA,$GAGSV,4,1,13,102,48,098,33,107,68,266,36,108,51,119,32,112,09,357,19*69,1724172515000
NMEA,$GAGSV,4,2,13,125,23,040,33,130,26,162,19,133,25,305,36*61,1724172515000
NMEA,$GAGSV,4,3,13,102,48,098,32,107,68,266,35,108,51,119,29,125,23,040,32,1*7E,1724172515000
NMEA,$GAGSV,4,4,13,130,26,162,14,133,25,305,38,1*7A,1724172515000
NMEA,$BDGSV,3,1,08,207,23,074,26,209,15,069,23,210,23,087,35,221,21,146,19*62,1724172515000
NMEA,$BDGSV,3,2,08,224,24,206,27,226,65,151,29*69,1724172515000
NMEA,$BDGSV,3,3,08,224,24,206,24,226,65,151,26,5*7D,1724172515000
NMEA,$GPGSA,A,3,05,07,13,15,20,22,,,,,,,0.8,0.4,0.8*30,1724172515000
NMEA,$GNGSA,A,3,66,67,76,77,83,84,,,,,,,0.8,0.4,0.8*2F,1724172515000
NMEA,$GAGSA,A,3,112,130,,,,,,,,,,,0.8,0.4,0.8*27,1724172515000
NMEA,$BDGSA,A,3,207,209,210,,,,,,,,,,0.8,0.4,0.8*1A,1724172515000
NMEA,$PSSGR,GSA,A,3,14,18,27,30,,,,,,,,,0.8,0.4,0.8,1,8*4B,1724172515000
NMEA,$PSSGR,GSA,A,3,102,107,108,125,133,,,,,,,,0.8,0.4,0.8,3,1*71,1724172515000
NMEA,$PSSGR,GSA,A,3,224,226,,,,,,,,,,,0.8,0.4,0.8,4,5*4B,1724172515000
NMEA,$GPRMC,164835.000,A,5944.5708,N,01046.2624,E,0.0,0.0,200824,,,A*68,1724172515000
NMEA,$PSAMCLK,2328,23333300,28,31782,2257,233333000*47,1724172515000
NMEA,$GPGGA,164836.000,5944.5707,N,01046.2623,E,1,28,0.4,89.4,M,40.7,M,,*65,1724172516000
NMEA,$PSAMSA,164836.000,5944.5707,N,01046.2623,E,1,M,,*69,1724172516000
NMEA,$GPGLL,5944.5707,N,01046.2623,E,164836.000,A,A*58,1724172516000
NMEA,$GPVTG,0.0,T,,M,0.0,N,0.0,K,A*0D,1724172516000
NMEA,$GPGSV,5,1,16,05,51,231,38,07,36,072,30,08,16,049,22,13,61,271,41*72,1724172516000
NMEA,$GPGSV,5,2,16,14,37,149,30,15,29,288,35,18,21,310,33,20,30,201,23*77,1724172516000
NMEA,$GPGSV,5,3,16,22,20,165,29,27,13,017,24,30,66,096,31*4A,1724172516000
NMEA,$GPGSV,5,4,16,08,16,049,32,14,37,149,24,18,21,310,36,27,13,017,26,8*6B,1724172516000
NMEA,$GPGSV,5,5,16,30,66,096,30,8*55,1724172516000
NMEA,$GLGSV,2,1,06,66,39,134,34,67,81,281,40,76,59,062,40,77,58,175,34*68,1724172516000
NMEA,$GLGSV,2,2,06,83,11,284,23,84,23,346,26*6F,1724172516000
NMEA,$GAGSV,4,1,13,102,48,098,32,103,03,110,20,107,68,266,36,108,51,119,31*6A,1724172516000
NMEA,$GAGSV,4,2,13,112,09,357,19,125,23,040,33,130,26,162,19,133,25,305,36*63,1724172516000
NMEA,$GAGSV,4,3,13,102,48,098,31,107,68,266,35,108,51,119,29,125,23,040,32,1*7D,1724172516000
NMEA,$GAGSV,4,4,13,133,25,305,38,1*7C,1724172516000
NMEA,$BDGSV,3,1,09,207,23,074,26,209,15,069,23,210,23,087,35,221,21,146,20*69,1724172516000
NMEA,$BDGSV,3,2,09,224,24,206,26,226,65,151,29*69,1724172516000
NMEA,$BDGSV,3,3,09,221,21,146,24,224,24,206,24,226,65,151,25,5*78,1724172516000
NMEA,$GPGSA,A,3,05,07,13,15,20,,,,,,,,1.0,0.4,0.8*39,1724172516000
NMEA,$GNGSA,A,3,66,67,76,77,84,,,,,,,,1.0,0.4,0.8*2D,1724172516000
NMEA,$GAGSA,A,3,112,130,,,,,,,,,,,1.0,0.4,0.8*2E,1724172516000
NMEA,$BDGSA,A,3,207,209,210,,,,,,,,,,1.0,0.4,0.8*13,1724172516000
NMEA,$PSSGR,GSA,A,3,08,14,18,27,30,,,,,,,,1.0,0.4,0.8,1,8*4A,1724172516000
NMEA,$PSSGR,GSA,A,3,102,107,108,125,133,,,,,,,,1.0,0.4,0.8,3,1*78,1724172516000
NMEA,$PSSGR,GSA,A,3,221,224,226,,,,,,,,,,1.0,0.4,0.8,4,5*73,1724172516000
NMEA,$GPRMC,164836.000,A,5944.5707,N,01046.2623,E,0.0,0.0,200824,,,A*63,1724172516000
NMEA,$PSAMCLK,2328,23333400,28,31173,2454,233334000*4A,1724172516000
NMEA,$GPGGA,164837.000,5944.5706,N,01046.2623,E,1,28,0.4,89.3,M,40.7,M,,*62,1724172517000
NMEA,$PSAMSA,164837.000,5944.5706,N,01046.2623,E,1,M,,*69,1724172517000
NMEA,$GPGLL,5944.5706,N,01046.2623,E,164837.000,A,A*58,1724172517000
NMEA,$GPVTG,0.0,T,,M,0.0,N,0.0,K,A*0D,1724172517000
NMEA,$GPGSV,5,1,16,05,51,231,38,07,36,072,30,08,16,049,24,13,61,271,41*74,1724172517000
NMEA,$GPGSV,5,2,16,14,37,149,30,15,29,288,35,18,21,310,33,20,30,201,23*77,1724172517000
NMEA,$GPGSV,5,3,16,22,20,165,29,27,13,017,30,30,66,096,32*4C,1724172517000
NMEA,$GPGSV,5,4,16,08,16,049,32,14,37,149,24,18,21,310,36,27,13,017,26,8*6B,1724172517000
NMEA,$GPGSV,5,5,16,30,66,096,30,8*55,1724172517000
NMEA,$GLGSV,2,1,06,66,39,134,34,67,81,281,40,76,59,062,40,77,58,175,34*68,1724172517000
NMEA,$GLGSV,2,2,06,83,11,284,23,84,23,346,26*6F,1724172517000
NMEA,$GAGSV,5,1,14,102,48,098,32,103,03,110,18,107,68,266,36,108,51,119,32*64,1724172517000
NMEA,$GAGSV,5,2,14,112,09,357,19,125,23,040,33,130,26,162,19,133,25,305,36*65,1724172517000
NMEA,$GAGSV,5,3,14*6B,1724172517000
NMEA,$GAGSV,5,4,14,102,48,098,31,107,68,266,35,108,51,119,29,125,23,040,32,1*7C,1724172517000
NMEA,$GAGSV,5,5,14,133,25,305,38,1*7B,1724172517000
NMEA,$BDGSV,3,1,08,207,23,074,26,209,15,069,23,210,23,087,35,221,21,146,22*6A,1724172517000
NMEA,$BDGSV,3,2,08,224,24,206,26,226,65,151,29*68,1724172517000
NMEA,$BDGSV,3,3,08,221,21,146,24,226,65,151,29,5*75,1724172517000
NMEA,$GPGSA,A,3,05,07,13,15,20,22,,,,,,,0.8,0.4,0.8*30,1724172517000
NMEA,$GNGSA,A,3,66,67,76,77,84,,,,,,,,0.8,0.4,0.8*24,1724172517000
NMEA,$GAGSA,A,3,108,112,130,,,,,,,,,,0.8,0.4,0.8*1E,1724172517000
NMEA,$BDGSA,A,3,207,210,224,,,,,,,,,,0.8,0.4,0.8*15,1724172517000
NMEA,$PSSGR,GSA,A,3,08,14,18,27,30,,,,,,,,0.8,0.4,0.8,1,8*43,1724172517000
NMEA,$PSSGR,GSA,A,3,102,107,125,133,,,,,,,,,0.8,0.4,0.8,3,1*48,1724172517000
NMEA,$PSSGR,GSA,A,3,221,226,,,,,,,,,,,0.8,0.4,0.8,4,5*4E,1724172517000
NMEA,$GPRMC,164837.000,A,5944.5706,N,01046.2623,E,0.0,0.0,200824,,,A*63,1724172517000
NMEA,$PSAMCLK,2328,23333500,28,30578,2647,233335000*44,1724172517000
NMEA,$GPGGA,164838.000,5944.5695,N,01046.2618,E,1,24,0.6,85.3,M,40.7,M,,*6C,1724172518000
NMEA,$PSAMSA,164838.000,5944.5695,N,01046.2618,E,0,M,,*64,1724172518000
NMEA,$GPGLL,5944.5695,N,01046.2618,E,164838.000,A,A*54,1724172518000
NMEA,$GPVTG,0.0,T,,M,0.6,N,1.0,K,A*0A,1724172518000
NMEA,$GPGSV,5,1,16,05,51,231,38,07,36,072,30,08,16,049,26,13,61,271,41*76,1724172518000
NMEA,$GPGSV,5,2,16,14,37,149,30,15,29,288,36,18,21,310,33,20,30,201,23*74,1724172518000
NMEA,$GPGSV,5,3,16,22,20,165,29,27,13,017,31,30,66,096,32*4D,1724172518000
NMEA,$GPGSV,5,4,16,08,16,049,32,14,37,149,24,18,21,310,36,27,13,017,25,8*68,1724172518000
NMEA,$GPGSV,5,5,16,30,66,096,30,8*55,1724172518000
NMEA,$GLGSV,2,1,06,66,39,134,34,67,81,281,40,76,59,062,40,77,58,175,34*68,1724172518000
NMEA,$GLGSV,2,2,06,83,11,284,23,84,23,346,26*6F,1724172518000
NMEA,$GAGSV,5,1,14,102,48,098,32,103,03,110,15,107,68,266,36,108,51,119,32*69,1724172518000
NMEA,$GAGSV,5,2,14,112,09,357,19,125,23,040,33,130,26,162,19,133,25,305,35*66,1724172518000
NMEA,$GAGSV,5,3,14*6B,1724172518000
NMEA,$GAGSV,5,4,14,102,48,098,31,107,68,266,35,108,51,119,28,125,23,040,31,1*7E,1724172518000
NMEA,$GAGSV,5,5,14,133,25,305,37,1*74,1724172518000
NMEA,$BDGSV,3,1,09,207,23,074,26,209,15,069,23,210,23,087,35,221,21,146,27*6E,1724172518000
NMEA,$BDGSV,3,2,09,224,24,206,26,226,65,151,30*61,1724172518000
NMEA,$BDGSV,3,3,09,221,21,146,23,226,65,151,29,5*73,1724172518000
NMEA,$GPGSA,A,3,05,07,13,15,22,,,,,,,,1.0,0.6,0.8*39,1724172518000
NMEA,$GNGSA,A,3,66,67,76,77,,,,,,,,,1.0,0.6,0.8*23,1724172518000
NMEA,$GAGSA,A,3,,,,,,,,,,,,,1.0,0.6,0.8*2C,1724172518000
NMEA,$BDGSA,A,3,207,209,210,221,226,,,,,,,,1.0,0.6,0.8*16,1724172518000
NMEA,$PSSGR,GSA,A,3,08,14,18,27,30,,,,,,,,1.0,0.6,0.8,1,8*48,1724172518000
NMEA,$PSSGR,GSA,A,3,102,107,108,125,133,,,,,,,,1.0,0.6,0.8,3,1*7A,1724172518000
NMEA,$GPRMC,164838.000,A,5944.5695,N,01046.2618,E,0.6,0.0,200824,,,A*69,1724172518000
NMEA,$PSAMCLK,2328,23333600,24,29956,2822,233336000*4D,1724172518000
NMEA,$GPGGA,164839.000,5944.5684,N,01046.2613,E,1,28,0.4,81.0,M,40.7,M,,*6F,1724172519000
NMEA,$PSAMSA,164839.000,5944.5684,N,01046.2613,E,0,M,,*6E,1724172519000
NMEA,$GPGLL,5944.5684,N,01046.2613,E,164839.000,A,A*5E,1724172519000
NMEA,$GPVTG,0.0,T,,M,0.4,N,0.8,K,A*01,1724172519000
NMEA,$GPGSV,5,1,16,05,51,231,38,07,36,072,33,08,16,049,27,13,61,271,41*74,1724172519000
NMEA,$GPGSV,5,2,16,14,37,149,30,15,29,288,36,18,21,310,34,20,30,201,23*73,1724172519000
NMEA,$GPGSV,5,3,16,22,20,165,29,27,13,017,31,30,66,096,32*4D,1724172519000
NMEA,$GPGSV,5,4,16,08,16,049,31,14,37,149,24,18,21,310,35,27,13,017,25,8*68,1724172519000
NMEA,$GPGSV,5,5,16,30,66,096,30,8*55,1724172519000
NMEA,$GLGSV,2,1,06,66,39,134,34,67,81,281,40,76,59,062,39,77,58,175,34*66,1724172519000
NMEA,$GLGSV,2,2,06,83,11,284,23,84,23,346,26*6F,1724172519000
NMEA,$GAGSV,5,1,14,102,48,098,32,103,03,110,14,107,68,266,36,108,51,119,32*68,1724172519000
NMEA,$GAGSV,5,2,14,112,09,357,18,125,23,040,33,130,26,162,19,133,25,305,34*66,1724172519000
NMEA,$GAGSV,5,3,14*6B,1724172519000
NMEA,$GAGSV,5,4,14,102,48,098,31,107,68,266,34,108,51,119,28,125,23,040,31,1*7F,1724172519000
NMEA,$GAGSV,5,5,14,133,25,305,37,1*74,1724172519000
NMEA,$BDGSV,3,1,08,207,23,074,27,209,15,069,23,210,23,087,35,221,21,146,27*6E,1724172519000
NMEA,$BDGSV,3,2,08,224,24,206,26,226,65,151,31*61,1724172519000
NMEA,$BDGSV,3,3,08,224,24,206,23,226,65,151,28,5*74,1724172519000
NMEA,$GPGSA,A,3,05,07,13,15,20,22,,,,,,,0.8,0.4,0.8*30,1724172519000
NMEA,$GNGSA,A,3,66,67,76,77,83,84,,,,,,,0.8,0.4,0.8*2F,1724172519000
NMEA,$GAGSA,A,3,,,,,,,,,,,,,0.8,0.4,0.8*27,1724172519000
NMEA,$BDGSA,A,3,207,209,210,221,226,,,,,,,,0.8,0.4,0.8*1D,1724172519000
NMEA,$PSSGR,GSA,A,3,08,14,18,27,30,,,,,,,,0.8,0.4,0.8,1,8*43,1724172519000
NMEA,$PSSGR,GSA,A,3,102,107,108,125,133,,,,,,,,0.8,0.4,0.8,3,1*71,1724172519000
NMEA,$PSSGR,GSA,A,3,224,,,,,,,,,,,,0.8,0.4,0.8,4,5*7D,1724172519000
NMEA,$GPRMC,164839.000,A,5944.5684,N,01046.2613,E,0.4,0.0,200824,,,A*61,1724172519000
NMEA,$PSAMCLK,2328,23333700,28,29248,3004,233337000*48,1724172519000
NMEA,$GPGGA,164840.000,5944.5678,N,01046.2603,E,1,26,0.4,78.8,M,40.7,M,,*63,1724172520000
NMEA,$PSAMSA,164840.000,5944.5678,N,01046.2603,E,0,M,,*62,1724172520000
NMEA,$GPGLL,5944.5678,N,01046.2603,E,164840.000,A,A*52,1724172520000
NMEA,$GPVTG,0.0,T,,M,0.4,N,0.8,K,A*01,1724172520000
NMEA,$GPGSV,5,1,16,05,51,231,38,07,36,072,39,08,16,049,29,13,61,271,40*71,1724172520000
NMEA,$GPGSV,5,2,16,14,37,149,30,15,29,288,36,18,21,310,40,20,30,201,29*7A,1724172520000
NMEA,$GPGSV,5,3,16,22,20,165,29,27,13,017,31,30,66,096,32*4D,1724172520000
NMEA,$GPGSV,5,4,16,08,16,049,30,14,37,149,24,18,21,310,35,27,13,017,25,8*69,1724172520000
NMEA,$GPGSV,5,5,16,30,66,096,33,8*56,1724172520000
NMEA,$GLGSV,2,1,06,66,39,134,33,67,81,281,39,76,59,062,39,77,58,175,33*68,1724172520000
NMEA,$GLGSV,2,2,06,83,11,284,23,84,23,346,26*6F,1724172520000
NMEA,$GAGSV,4,1,13,102,48,098,32,103,03,110,12,107,68,266,36,108,51,119,32*68,1724172520000
NMEA,$GAGSV,4,2,13,112,09,357,18,125,23,040,32,130,26,162,19,133,25,305,33*66,1724172520000
NMEA,$GAGSV,4,3,13,102,48,098,31,107,68,266,36,108,51,119,28,125,23,040,31,1*7C,1724172520000
NMEA,$GAGSV,4,4,13,133,25,305,37,1*73,1724172520000
NMEA,$BDGSV,3,1,09,207,23,074,27,209,15,069,23,210,23,087,33,221,21,146,27*69,1724172520000
NMEA,$BDGSV,3,2,09,224,24,206,26,226,65,151,31*60,1724172520000
NMEA,$BDGSV,3,3,09,224,24,206,26,226,65,151,28,5*70,1724172520000
NMEA,$GPGSA,A,3,05,07,13,15,20,22,,,,,,,0.8,0.4,0.8*30,1724172520000
NMEA,$GNGSA,A,3,66,67,76,83,,,,,,,,,0.8,0.4,0.8*23,1724172520000
NMEA,$GAGSA,A,3,130,,,,,,,,,,,,0.8,0.4,0.8*15,1724172520000
NMEA,$BDGSA,A,3,207,209,221,226,,,,,,,,,0.8,0.4,0.8*2E,1724172520000
NMEA,$PSSGR,GSA,A,3,08,14,18,27,30,,,,,,,,0.8,0.4,0.8,1,8*43,1724172520000
NMEA,$PSSGR,GSA,A,3,102,107,108,125,133,,,,,,,,0.8,0.4,0.8,3,1*71,1724172520000
NMEA,$PSSGR,GSA,A,3,224,,,,,,,,,,,,0.8,0.4,0.8,4,5*7D,1724172520000
NMEA,$GPRMC,164840.000,A,5944.5678,N,01046.2603,E,0.4,0.0,200824,,,A*6D,1724172520000
NMEA,$PSAMCLK,2328,23333800,26,28352,3179,233338000*46,1724172520000
NMEA,$GPGGA,164841.000,5944.5678,N,01046.2603,E,1,26,0.4,78.7,M,40.7,M,,*6D,1724172521000
NMEA,$PSAMSA,164841.000,5944.5678,N,01046.2603,E,1,M,,*62,1724172521000
NMEA,$GPGLL,5944.5678,N,01046.2603,E,164841.000,A,A*53,1724172521000
NMEA,$GPVTG,0.0,T,,M,0.0,N,0.0,K,A*0D,1724172521000
NMEA,$GPGSV,5,1,16,05,51,231,38,07,36,072,39,08,16,049,29,13,61,271,39*7F,1724172521000
NMEA,$GPGSV,5,2,16,14,37,149,30,15,29,288,36,18,21,310,41,20,30,201,30*73,1724172521000
NMEA,$GPGSV,5,3,16,22,20,165,29,27,13,017,30,30,66,096,32*4C,1724172521000
NMEA,$GPGSV,5,4,16,08,16,049,30,14,37,149,24,18,21,310,35,27,13,017,24,8*68,1724172521000
NMEA,$GPGSV,5,5,16,30,66,096,33,8*56,1724172521000
NMEA,$GLGSV,2,1,06,66,39,134,33,67,81,281,37,76,59,062,38,77,58,175,32*66,1724172521000
NMEA,$GLGSV,2,2,06,83,11,284,23,84,23,346,25*6C,1724172521000
NMEA,$GAGSV,4,1,12,102,48,098,32,107,68,266,36,108,51,119,31,112,09,357,18*6B,1724172521000
NMEA,$GAGSV,4,2,12,125,23,040,31,130,26,162,19,133,25,305,32*66,1724172521000
NMEA,$GAGSV,4,3,12,102,48,098,31,107,68,266,36,108,51,119,28,125,23,040,31,1*7D,1724172521000
NMEA,$GAGSV,4,4,12,133,25,305,36,1*73,1724172521000
NMEA,$BDGSV,3,1,09,207,23,074,28,209,15,069,23,210,23,087,31,221,21,146,27*64,1724172521000
NMEA,$BDGSV,3,2,09,224,24,206,28,226,65,151,31*6E,1724172521000
NMEA,$BDGSV,3,3,09,224,24,206,26,226,65,151,27,5*7F,1724172521000
NMEA,$GPGSA,A,3,05,07,13,15,20,22,,,,,,,1.0,0.4,0.8*39,1724172521000
NMEA,$GNGSA,A,3,66,67,76,77,,,,,,,,,1.0,0.4,0.8*21,1724172521000
NMEA,$GAGSA,A,3,130,,,,,,,,,,,,1.0,0.4,0.8*1C,1724172521000
NMEA,$BDGSA,A,3,207,209,210,226,,,,,,,,,1.0,0.4,0.8*25,1724172521000
NMEA,$PSSGR,GSA,A,3,08,14,18,27,30,,,,,,,,1.0,0.4,0.8,1,8*4A,1724172521000
NMEA,$PSSGR,GSA,A,3,102,107,108,125,133,,,,,,,,1.0,0.4,0.8,3,1*78,1724172521000
NMEA,$PSSGR,GSA,A,3,224,,,,,,,,,,,,1.0,0.4,0.8,4,5*74,1724172521000
NMEA,$GPRMC,164841.000,A,5944.5678,N,01046.2603,E,0.0,0.0,200824,,,A*68,1724172521000
NMEA,$PSAMCLK,2328,23333900,26,27818,3358,233339000*4D,1724172521000
NMEA,$GPGGA,164842.000,5944.5678,N,01046.2603,E,1,27,0.4,78.6,M,40.7,M,,*6E,1724172522000
NMEA,$PSAMSA,164842.000,5944.5678,N,01046.2603,E,1,M,,*61,1724172522000
NMEA,$GPGLL,5944.5678,N,01046.2603,E,164842.000,A,A*50,1724172522000
NMEA,$GPVTG,0.0,T,,M,0.0,N,0.0,K,A*0D,1724172522000
NMEA,$GPGSV,5,1,16,05,51,231,38,07,36,072,39,08,16,049,30,13,61,271,38*76,1724172522000
NMEA,$GPGSV,5,2,16,14,37,149,29,15,29,288,36,18,21,310,41,20,30,201,30*7B,1724172522000
NMEA,$GPGSV,5,3,16,22,20,165,28,27,13,017,30,30,66,096,33*4C,1724172522000
NMEA,$GPGSV,5,4,16,08,16,049,29,14,37,149,23,18,21,310,35,27,13,017,24,8*67,1724172522000
NMEA,$GPGSV,5,5,16,30,66,096,33,8*56,1724172522000
NMEA,$GLGSV,2,1,06,66,39,134,33,67,81,281,36,76,59,062,38,77,58,175,31*64,1724172522000
NMEA,$GLGSV,2,2,06,83,11,284,23,84,23,346,22*6B,1724172522000
NMEA,$GAGSV,4,1,13,102,48,098,32,107,68,266,36,108,51,119,30,112,09,357,18*6B,1724172522000
NMEA,$GAGSV,4,2,13,125,23,040,30,130,26,162,18,133,25,305,31*64,1724172522000
NMEA,$GAGSV,4,3,13,102,48,098,31,107,68,266,36,108,51,119,28,125,23,040,30,1*7D,1724172522000
NMEA,$GAGSV,4,4,13,133,25,305,36,1*72,1724172522000
NMEA,$BDGSV,3,1,09,207,23,074,33,209,15,069,23,210,23,087,30,221,21,146,27*6F,1724172522000
NMEA,$BDGSV,3,2,09,224,24,206,32,226,65,151,31*65,1724172522000
NMEA,$BDGSV,3,3,09,224,24,206,26,226,65,151,27,5*7F,1724172522000
NMEA,$GPGSA,A,3,05,07,13,15,20,22,,,,,,,1.0,0.4,0.8*39,1724172522000
NMEA,$GNGSA,A,3,66,67,76,77,,,,,,,,,1.0,0.4,0.8*21,1724172522000
NMEA,$GAGSA,A,3,130,,,,,,,,,,,,1.0,0.4,0.8*1C,1724172522000
NMEA,$BDGSA,A,3,207,209,210,221,224,226,,,,,,,1.0,0.4,0.8*20,1724172522000
NMEA,$PSSGR,GSA,A,3,08,14,18,27,30,,,,,,,,1.0,0.4,0.8,1,8*4A,1724172522000
NMEA,$PSSGR,GSA,A,3,102,107,108,125,133,,,,,,,,1.0,0.4,0.8,3,1*78,1724172522000
NMEA,$GPRMC,164842.000,A,5944.5678,N,01046.2603,E,0.0,0.0,200824,,,A*6B,1724172522000
NMEA,$PSAMCLK,2328,23334000,27,27402,3533,233340000*40,1724172522000
NMEA,$GPGGA,164843.000,5944.5677,N,01046.2603,E,1,27,0.4,78.6,M,40.7,M,,*60,1724172523000
NMEA,$PSAMSA,164843.000,5944.5677,N,01046.2603,E,1,M,,*6F,1724172523000
NMEA,$GPGLL,5944.5677,N,01046.2603,E,164843.000,A,A*5E,1724172523000
NMEA,$GPVTG,0.0,T,,M,0.0,N,0.0,K,A*0D,1724172523000
NMEA,$GPGSV,5,1,16,05,51,231,37,07,36,072,39,08,16,049,30,13,61,271,37*76,1724172523000
NMEA,$GPGSV,5,2,16,15,29,288,36,18,21,310,41,20,30,201,30,22,20,165,28*77,1724172523000
NMEA,$GPGSV,5,3,16,27,13,017,29,30,66,096,33*7E,1724172523000
NMEA,$GPGSV,5,4,16,08,16,049,28,14,37,149,23,18,21,310,35,27,13,017,24,8*66,1724172523000
NMEA,$GPGSV,5,5,16,30,66,096,32,8*57,1724172523000
NMEA,$GLGSV,2,1,06,66,39,134,33,67,81,281,35,76,59,062,37,77,58,175,30*69,1724172523000
NMEA,$GLGSV,2,2,06,83,11,284,23,84,23,346,19*63,1724172523000
NMEA,$GAGSV,4,1,12,102,48,098,32,107,68,266,36,108,51,119,29,125,23,040,29*69,1724172523000
NMEA,$GAGSV,4,2,12,130,26,162,18,133,25,305,30*64,1724172523000
NMEA,$GAGSV,4,3,12,102,48,098,30,107,68,266,37,108,51,119,27,112,09,357,16,1*7E,1724172523000
NMEA,$GAGSV,4,4,12,125,23,040,30,1*76,1724172523000
NMEA,$BDGSV,3,1,09,207,23,074,33,209,15,069,23,210,23,087,29,221,21,146,26*66,1724172523000
NMEA,$BDGSV,3,2,09,224,24,206,32,226,65,151,31*65,1724172523000
NMEA,$BDGSV,3,3,09,224,24,206,26,226,65,151,27,5*7F,1724172523000
NMEA,$GPGSA,A,3,05,07,13,15,20,22,,,,,,,0.8,0.4,0.8*30,1724172523000
NMEA,$GNGSA,A,3,66,67,76,77,83,,,,,,,,0.8,0.4,0.8*23,1724172523000
NMEA,$GAGSA,A,3,133,,,,,,,,,,,,0.8,0.4,0.8*16,1724172523000
NMEA,$BDGSA,A,3,207,209,210,221,224,226,,,,,,,0.8,0.4,0.8*29,1724172523000
NMEA,$PSSGR,GSA,A,3,08,14,18,27,30,,,,,,,,0.8,0.4,0.8,1,8*43,1724172523000
NMEA,$PSSGR,GSA,A,3,102,107,108,125,,,,,,,,,0.8,0.4,0.8,3,1*40,1724172523000
NMEA,$GPRMC,164843.000,A,5944.5677,N,01046.2603,E,0.0,0.0,200824,,,A*65,1724172523000
NMEA,$PSAMCLK,2328,23334100,27,27171,3706,233341000*45,1724172523000
NMEA,$GPGGA,164844.000,5944.5677,N,01046.2603,E,1,24,0.4,78.6,M,40.7,M,,*64,1724172524000
NMEA,$PSAMSA,164844.000,5944.5677,N,01046.2603,E,1,M,,*68,1724172524000
NMEA,$GPGLL,5944.5677,N,01046.2603,E,164844.000,A,A*59,1724172524000
NMEA,$GPVTG,0.0,T,,M,0.0,N,0.0,K,A*0D,1724172524000
NMEA,$GPGSV,5,1,16,05,51,231,37,07,36,072,39,08,16,049,31,13,61,271,37*77,1724172524000
NMEA,$GPGSV,5,2,16,14,37,149,26,15,29,288,36,18,21,310,41,20,30,201,30*74,1724172524000
NMEA,$GPGSV,5,3,16,22,20,165,28,27,13,017,29,30,66,096,33*44,1724172524000
NMEA,$GPGSV,5,4,16,08,16,049,28,14,37,149,23,18,21,310,35,27,13,017,23,8*61,1724172524000
NMEA,$GPGSV,5,5,16,30,66,096,33,8*56,1724172524000
NMEA,$GLGSV,2,1,06,66,39,134,33,67,81,281,34,76,59,062,37,77,58,175,29*60,1724172524000
NMEA,$GLGSV,2,2,06,83,11,284,23,84,23,346,16*6C,1724172524000
NMEA,$GAGSV,4,1,13,102,48,098,32,107,68,266,35,108,51,119,28,112,09,357,14*6D,1724172524000
NMEA,$GAGSV,4,2,13,125,23,040,29,130,26,162,18,133,25,305,30*6D,1724172524000
NMEA,$GAGSV,4,3,13*6D,1724172524000
NMEA,$GAGSV,4,4,13,102,48,098,31,107,68,266,37,108,51,119,27,125,23,040,30,1*74,1724172524000
NMEA,$BDGSV,3,1,09,207,23,074,33,209,15,069,23,210,23,087,29,221,21,146,26*66,1724172524000
NMEA,$BDGSV,3,2,09,224,24,206,32,226,65,151,31*65,1724172524000
NMEA,$BDGSV,3,3,09,224,24,206,26,226,65,151,26,5*7E,1724172524000
NMEA,$GPGSA,A,3,05,07,13,15,20,22,,,,,,,1.0,0.4,0.8*39,1724172524000
NMEA,$GNGSA,A,3,66,67,76,,,,,,,,,,1.0,0.4,0.8*21,1724172524000
NMEA,$GAGSA,A,3,130,133,,,,,,,,,,,1.0,0.4,0.8*2D,1724172524000
NMEA,$BDGSA,A,3,207,209,224,226,,,,,,,,,1.0,0.4,0.8*22,1724172524000
NMEA,$PSSGR,GSA,A,3,08,14,18,27,30,,,,,,,,1.0,0.4,0.8,1,8*4A,1724172524000
NMEA,$PSSGR,GSA,A,3,102,107,108,125,,,,,,,,,1.0,0.4,0.8,3,1*49,1724172524000
NMEA,$GPRMC,164844.000,A,5944.5677,N,01046.2603,E,0.0,0.0,200824,,,A*62,1724172524000
NMEA,$PSAMCLK,2328,23334200,24,27188,3878,233342000*46,1724172524000
NMEA,$GPGGA,164845.000,5944.5677,N,01046.2603,E,1,26,0.4,78.5,M,40.7,M,,*64,1724172525000
NMEA,$PSAMSA,164845.000,5944.5677,N,01046.2603,E,1,M,,*69,1724172525000
NMEA,$GPGLL,5944.5677,N,01046.2603,E,164845.000,A,A*58,1724172525000
NMEA,$GPVTG,0.0,T,,M,0.0,N,0.0,K,A*0D,1724172525000
NMEA,$GPGSV,5,1,16,05,51,231,36,07,36,072,39,08,16,049,31,13,61,271,36*77,1724172525000
NMEA,$GPGSV,5,2,16,14,37,149,25,15,29,288,36,18,21,310,41,20,30,201,31*76,1724172525000
NMEA,$GPGSV,5,3,16,22,20,165,28,27,13,017,28,30,66,096,33*45,1724172525000
NMEA,$GPGSV,5,4,16,08,16,049,28,14,37,149,23,18,21,310,35,27,13,017,23,8*61,1724172525000
NMEA,$GPGSV,5,5,16,30,66,096,33,8*56,1724172525000
NMEA,$GLGSV,2,1,06,66,39,134,33,67,81,281,34,76,59,062,36,77,58,175,28*60,1724172525000
NMEA,$GLGSV,2,2,06,83,11,284,23,84,23,346,13*69,1724172525000
NMEA,$GAGSV,4,1,13,102,48,098,32,107,68,266,35,108,51,119,27,112,09,357,13*65,1724172525000
NMEA,$GAGSV,4,2,13,125,23,040,28,130,26,162,18,133,25,305,30*6C,1724172525000
NMEA,$GAGSV,4,3,13,102,48,098,30,107,68,266,37,108,51,119,26,125,23,040,30,1*73,1724172525000
NMEA,$GAGSV,4,4,13,133,25,305,33,1*77,1724172525000
NMEA,$BDGSV,3,1,09,207,23,074,33,209,15,069,23,210,23,087,29,221,21,146,25*65,1724172525000
NMEA,$BDGSV,3,2,09,224,24,206,32,226,65,151,31*65,1724172525000
NMEA,$BDGSV,3,3,09,224,24,206,25,226,65,151,26,5*7D,1724172525000
NMEA,$GPGSA,A,3,05,07,13,15,22,,,,,,,,1.0,0.4,0.8*3B,1724172525000
NMEA,$GNGSA,A,3,66,67,76,77,83,,,,,,,,1.0,0.4,0.8*2A,1724172525000
NMEA,$GAGSA,A,3,130,,,,,,,,,,,,1.0,0.4,0.8*1C,1724172525000
NMEA,$BDGSA,A,3,207,209,210,224,226,,,,,,,,1.0,0.4,0.8*11,1724172525000
NMEA,$PSSGR,GSA,A,3,08,14,18,27,30,,,,,,,,1.0,0.4,0.8,1,8*4A,1724172525000
NMEA,$PSSGR,GSA,A,3,102,107,108,125,133,,,,,,,,1.0,0.4,0.8,3,1*78,1724172525000
NMEA,$GPRMC,164845.000,A,5944.5677,N,01046.2603,E,0.0,0.0,200824,,,A*63,1724172525000
NMEA,$PSAMCLK,2328,23334300,26,27431,4051,233343000*47,1724172525000
NMEA,$GPGGA,164846.000,5944.5677,N,01046.2603,E,1,25,0.4,78.5,M,40.7,M,,*64,1724172526000
NMEA,$PSAMSA,164846.000,5944.5677,N,01046.2603,E,1,M,,*6A,1724172526000
NMEA,$GPGLL,5944.5677,N,01046.2603,E,164846.000,A,A*5B,1724172526000
NMEA,$GPVTG,0.0,T,,M,0.0,N,0.0,K,A*0D,1724172526000
NMEA,$GPGSV,5,1,16,05,51,231,36,07,36,072,39,08,16,049,31,13,61,271,36*77,1724172526000
NMEA,$GPGSV,5,2,16,14,37,149,24,15,29,288,36,18,21,310,40,20,30,201,31*76,1724172526000
NMEA,$GPGSV,5,3,16,22,20,165,28,27,13,017,28,30,66,096,34*42,1724172526000
NMEA,$GPGSV,5,4,16,08,16,049,27,14,37,149,23,18,21,310,35,27,13,017,23,8*6E,1724172526000
NMEA,$GPGSV,5,5,16,30,66,096,33,8*56,1724172526000
NMEA,$GLGSV,2,1,06,66,39,134,33,67,81,281,33,76,59,062,36,77,58,175,27*68,1724172526000
NMEA,$GLGSV,2,2,06,83,11,284,22,84,23,346,12*69,1724172526000
NMEA,$GAGSV,4,1,12,102,48,098,32,107,68,266,35,108,51,119,27,125,23,040,28*65,1724172526000
NMEA,$GAGSV,4,2,12,130,26,162,18,133,25,305,29*6C,1724172526000
NMEA,$GAGSV,4,3,12,102,48,098,30,107,68,266,36,108,51,119,26,125,23,040,29,1*7B,1724172526000
NMEA,$GAGSV,4,4,12,133,25,305,32,1*77,1724172526000
NMEA,$BDGSV,3,1,09,207,23,074,33,209,15,069,23,210,23,087,29,221,21,146,25*65,1724172526000
NMEA,$BDGSV,3,2,09,224,24,206,32,226,65,151,31*65,1724172526000
NMEA,$BDGSV,3,3,09,224,24,206,25,226,65,151,26,5*7D,1724172526000
NMEA,$GPGSA,A,3,05,07,13,15,22,,,,,,,,1.0,0.4,0.8*3B,1724172526000
NMEA,$GNGSA,A,3,66,67,76,77,,,,,,,,,1.0,0.4,0.8*21,1724172526000
NMEA,$GAGSA,A,3,130,,,,,,,,,,,,1.0,0.4,0.8*1C,1724172526000
NMEA,$BDGSA,A,3,207,209,210,224,,,,,,,,,1.0,0.4,0.8*27,1724172526000
NMEA,$PSSGR,GSA,A,3,08,14,18,27,30,,,,,,,,1.0,0.4,0.8,1,8*4A,1724172526000
NMEA,$PSSGR,GSA,A,3,102,107,108,125,133,,,,,,,,1.0,0.4,0.8,3,1*78,1724172526000
NMEA,$PSSGR,GSA,A,3,226,,,,,,,,,,,,1.0,0.4,0.8,4,5*76,1724172526000
NMEA,$GPRMC,164846.000,A,5944.5677,N,01046.2603,E,0.0,0.0,200824,,,A*60,1724172526000
NMEA,$PSAMCLK,2328,23334400,25,27837,4226,233344000*4C,1724172526000
NMEA,$GPGGA,164847.000,5944.5677,N,01046.2603,E,1,26,0.4,78.4,M,40.7,M,,*67,1724172527000
NMEA,$PSAMSA,164847.000,5944.5677,N,01046.2603,E,1,M,,*6B,1724172527000
NMEA,$GPGLL,5944.5677,N,01046.2603,E,164847.000,A,A*5A,1724172527000
NMEA,$GPVTG,0.0,T,,M,0.0,N,0.0,K,A*0D,1724172527000
NMEA,$GPGSV,5,1,16,05,51,231,35,07,36,072,39,08,16,049,32,13,61,271,35*74,1724172527000
NMEA,$GPGSV,5,2,16,14,37,149,24,15,29,288,36,18,21,310,40,20,30,201,31*76,1724172527000
NMEA,$GPGSV,5,3,16,22,20,165,28,27,13,017,28,30,66,096,34*42,1724172527000
NMEA,$GPGSV,5,4,16,08,16,049,27,14,37,149,22,18,21,310,35,27,13,017,23,8*6F,1724172527000
NMEA,$GPGSV,5,5,16,30,66,096,33,8*56,1724172527000
NMEA,$GLGSV,2,1,05,66,39,134,32,67,81,281,33,76,59,062,36,77,58,175,27*6A,1724172527000
NMEA,$GLGSV,2,2,05,83,11,284,22*55,1724172527000
NMEA,$GAGSV,4,1,12,102,48,098,32,107,68,266,35,108,51,119,26,125,23,040,27*6B,1724172527000
NMEA,$GAGSV,4,2,12,130,26,162,18,133,25,305,29*6C,1724172527000
NMEA,$GAGSV,4,3,12,102,48,098,30,107,68,266,36,108,51,119,26,125,23,040,29,1*7B,1724172527000
NMEA,$GAGSV,4,4,12,133,25,305,31,1*74,1724172527000
NMEA,$BDGSV,3,1,09,207,23,074,33,209,15,069,23,210,23,087,28,221,21,146,25*64,1724172527000
NMEA,$BDGSV,3,2,09,224,24,206,32,226,65,151,30*64,1724172527000
NMEA,$BDGSV,3,3,09,224,24,206,25,226,65,151,26,5*7D,1724172527000
NMEA,$GPGSA,A,3,05,07,13,15,20,22,,,,,,,1.0,0.4,0.8*39,1724172527000
NMEA,$GNGSA,A,3,66,67,76,77,,,,,,,,,1.0,0.4,0.8*21,1724172527000
NMEA,$GAGSA,A,3,130,,,,,,,,,,,,1.0,0.4,0.8*1C,1724172527000
NMEA,$BDGSA,A,3,207,209,210,224,,,,,,,,,1.0,0.4,0.8*27,1724172527000
NMEA,$PSSGR,GSA,A,3,08,14,18,27,30,,,,,,,,1.0,0.4,0.8,1,8*4A,1724172527000
NMEA,$PSSGR,GSA,A,3,102,107,108,125,133,,,,,,,,1.0,0.4,0.8,3,1*78,1724172527000
NMEA,$PSSGR,GSA,A,3,226,,,,,,,,,,,,1.0,0.4,0.8,4,5*76,1724172527000
NMEA,$GPRMC,164847.000,A,5944.5677,N,01046.2603,E,0.0,0.0,200824,,,A*61,1724172527000
NMEA,$PSAMCLK,2328,23334500,26,28512,4405,233345000*4D,1724172527000
NMEA,$GPGGA,164848.000,5944.5677,N,01046.2603,E,1,26,0.4,78.4,M,40.7,M,,*68,1724172528000
NMEA,$PSAMSA,164848.000,5944.5677,N,01046.2603,E,1,M,,*64,1724172528000
NMEA,$GPGLL,5944.5677,N,01046.2603,E,164848.000,A,A*55,1724172528000
NMEA,$GPVTG,0.0,T,,M,0.0,N,0.0,K,A*0D,1724172528000
NMEA,$GPGSV,5,1,16,05,51,231,35,07,36,072,39,08,16,049,32,13,61,271,35*74,1724172528000
NMEA,$GPGSV,5,2,16,14,37,149,24,15,29,288,36,18,21,310,40,20,30,201,31*76,1724172528000
NMEA,$GPGSV,5,3,16,22,20,165,28,27,13,017,27,30,66,096,34*4D,1724172528000
NMEA,$GPGSV,5,4,16,08,16,049,27,14,37,149,22,18,21,310,35,27,13,017,22,8*6E,1724172528000
NMEA,$GPGSV,5,5,16,30,66,096,33,8*56,1724172528000
NMEA,$GLGSV,2,1,05,66,39,134,32,67,81,280,32,76,59,061,35,77,58,175,26*6B,1724172528000
NMEA,$GLGSV,2,2,05,83,11,284,22*55,1724172528000
NMEA,$GAGSV,4,1,12,102,48,098,32,107,69,266,35,108,51,119,26,125,23,040,27*6A,1724172528000
NMEA,$GAGSV,4,2,12,130,26,162,18,133,25,305,29*6C,1724172528000
NMEA,$GAGSV,4,3,12,102,48,098,30,107,69,266,36,108,51,119,26,125,23,040,29,1*7A,1724172528000
NMEA,$GAGSV,4,4,12,133,25,305,30,1*75,1724172528000
NMEA,$BDGSV,3,1,08,207,23,074,33,209,15,069,23,210,23,087,28,221,21,146,24*64,1724172528000
NMEA,$BDGSV,3,2,08,224,24,206,32,226,65,151,30*65,1724172528000
NMEA,$BDGSV,3,3,08,224,24,206,25,226,65,151,27,5*7D,1724172528000
NMEA,$GPGSA,A,3,05,07,13,15,20,22,,,,,,,1.0,0.4,0.8*39,1724172528000
NMEA,$GNGSA,A,3,66,67,76,77,,,,,,,,,1.0,0.4,0.8*21,1724172528000
NMEA,$GAGSA,A,3,130,,,,,,,,,,,,1.0,0.4,0.8*1C,1724172528000
NMEA,$BDGSA,A,3,207,209,210,224,,,,,,,,,1.0,0.4,0.8*27,1724172528000
NMEA,$PSSGR,GSA,A,3,08,14,18,27,30,,,,,,,,1.0,0.4,0.8,1,8*4A,1724172528000
NMEA,$PSSGR,GSA,A,3,102,107,108,125,133,,,,,,,,1.0,0.4,0.8,3,1*78,1724172528000
NMEA,$PSSGR,GSA,A,3,226,,,,,,,,,,,,1.0,0.4,0.8,4,5*76,1724172528000
NMEA,$GPRMC,164848.000,A,5944.5677,N,01046.2603,E,0.0,0.0,200824,,,A*6E,1724172528000
NMEA,$PSAMCLK,2328,23334600,26,29194,4588,233346000*42,1724172528000
NMEA,$GPGGA,164849.000,5944.5677,N,01046.2603,E,1,27,0.4,78.4,M,40.7,M,,*68,1724172528000
NMEA,$PSAMSA,164849.000,5944.5677,N,01046.2603,E,1,M,,*65,1724172528000
NMEA,$GPGLL,5944.5677,N,01046.2603,E,164849.000,A,A*54,1724172528000
NMEA,$GPVTG,0.0,T,,M,0.0,N,0.0,K,A*0D,1724172528000
NMEA,$GPGSV,5,1,16,05,51,231,34,07,36,072,39,08,16,049,32,13,61,271,35*75,1724172528000
NMEA,$GPGSV,5,2,16,14,37,149,23,15,29,288,36,18,21,310,40,20,30,201,31*71,1724172528000
NMEA,$GPGSV,5,3,16,22,20,165,28,27,13,017,27,30,66,096,34*4D,1724172528000
NMEA,$GPGSV,5,4,16,08,16,049,26,14,37,149,22,18,21,310,35,27,13,017,22,8*6F,1724172528000
NMEA,$GPGSV,5,5,16,30,66,096,33,8*56,1724172528000
NMEA,$GLGSV,2,1,05,66,39,134,32,67,81,280,32,76,59,061,35,77,58,175,26*6B,1724172528000
NMEA,$GLGSV,2,2,05,83,11,284,22*55,1724172528000
NMEA,$GAGSV,4,1,12,102,48,098,32,107,69,266,34,108,51,119,25,125,23,040,26*69,1724172528000
NMEA,$GAGSV,4,2,12,130,26,162,16,133,25,305,29*62,1724172528000
NMEA,$GAGSV,4,3,12,102,48,098,30,107,69,266,36,108,51,119,25,125,23,040,28,1*78,1724172528000
NMEA,$GAGSV,4,4,12,133,25,305,29,1*7D,1724172528000
NMEA,$BDGSV,3,1,08,207,23,074,33,209,15,069,23,210,23,087,28,221,21,146,24*64,1724172528000
NMEA,$BDGSV,3,2,08,224,24,206,32,226,65,151,30*65,1724172528000
NMEA,$BDGSV,3,3,08,224,24,206,25,226,65,151,28,5*72,1724172528000
NMEA,$GPGSA,A,3,05,07,13,15,20,22,,,,,,,0.8,0.4,0.8*30,1724172528000
NMEA,$GNGSA,A,3,66,67,76,77,83,,,,,,,,0.8,0.4,0.8*23,1724172528000
NMEA,$GAGSA,A,3,,,,,,,,,,,,,0.8,0.4,0.8*27,1724172528000
NMEA,$BDGSA,A,3,207,209,210,221,224,,,,,,,,0.8,0.4,0.8*1F,1724172528000
NMEA,$PSSGR,GSA,A,3,08,14,18,27,30,,,,,,,,0.8,0.4,0.8,1,8*43,1724172528000
NMEA,$PSSGR,GSA,A,3,102,107,108,125,133,,,,,,,,0.8,0.4,0.8,3,1*71,1724172529000
NMEA,$PSSGR,GSA,A,3,226,,,,,,,,,,,,0.8,0.4,0.8,4,5*7F,1724172529000
NMEA,$GPRMC,164849.000,A,5944.5677,N,01046.2603,E,0.0,0.0,200824,,,A*6F,1724172529000
NMEA,$PSAMCLK,2328,23334700,27,30029,4776,233347000*4F,1724172529000
NMEA,$GPGGA,164850.000,5944.5677,N,01046.2603,E,1,26,0.4,78.4,M,40.7,M,,*61,1724172530000
NMEA,$PSAMSA,164850.000,5944.5677,N,01046.2603,E,1,M,,*6D,1724172530000
NMEA,$GPGLL,5944.5677,N,01046.2603,E,164850.000,A,A*5C,1724172530000
NMEA,$GPVTG,0.0,T,,M,0.0,N,0.0,K,A*0D,1724172530000
NMEA,$GPGSV,5,1,16,05,51,231,34,07,36,072,39,08,16,049,32,13,61,271,34*74,1724172530000
NMEA,$GPGSV,5,2,16,14,37,149,23,15,29,288,36,18,21,310,40,20,30,201,31*71,1724172530000
NMEA,$GPGSV,5,3,16,22,20,165,28,27,13,017,27,30,66,096,34*4D,1724172530000
NMEA,$GPGSV,5,4,16,08,16,049,26,14,37,149,22,18,21,310,35,27,13,017,22,8*6F,1724172530000
NMEA,$GPGSV,5,5,16,30,66,096,33,8*56,1724172530000
NMEA,$GLGSV,2,1,05,66,39,134,32,67,81,280,32,76,59,061,35,77,58,175,25*68,1724172530000
NMEA,$GLGSV,2,2,05,83,11,284,22*55,1724172530000
NMEA,$GAGSV,4,1,11,102,48,098,32,107,69,266,34,108,51,119,25,125,23,039,26*64,1724172530000
NMEA,$GAGSV,4,2,11,130,26,162,26,133,25,305,28*63,1724172530000
NMEA,$GAGSV,4,3,11,102,48,098,30,107,69,266,36,108,51,119,25,125,23,039,28,1*75,1724172530000
NMEA,$GAGSV,4,4,11,133,25,305,28,1*7F,1724172530000
NMEA,$BDGSV,3,1,08,207,23,074,33,209,15,069,23,210,23,087,28,221,20,146,24*65,1724172530000
NMEA,$BDGSV,3,2,08,224,24,206,32,226,65,151,30*65,1724172530000
NMEA,$BDGSV,3,3,08,224,24,206,25,226,65,151,28,5*72,1724172530000
NMEA,$GPGSA,A,3,05,07,13,15,20,22,,,,,,,1.0,0.4,0.8*39,1724172530000
NMEA,$GNGSA,A,3,66,67,76,77,83,,,,,,,,1.0,0.4,0.8*2A,1724172530000
NMEA,$GAGSA,A,3,,,,,,,,,,,,,1.0,0.4,0.8*2E,1724172530000
NMEA,$BDGSA,A,3,207,209,210,224,226,,,,,,,,1.0,0.4,0.8*11,1724172530000
NMEA,$PSSGR,GSA,A,3,08,14,18,27,30,,,,,,,,1.0,0.4,0.8,1,8*4A,1724172530000
NMEA,$PSSGR,GSA,A,3,102,107,108,125,133,,,,,,,,1.0,0.4,0.8,3,1*78,1724172530000
NMEA,$GPRMC,164850.000,A,5944.5677,N,01046.2603,E,0.0,0.0,200824,,,A*67,1724172530000
NMEA,$PSAMCLK,2328,23334800,26,30902,4968,233348000*4F,1724172530000
NMEA,$GPGGA,164851.000,5944.5677,N,01046.2603,E,1,27,0.4,78.4,M,40.7,M,,*61,1724172531000
NMEA,$PSAMSA,164851.000,5944.5677,N,01046.2603,E,1,M,,*6C,1724172531000
NMEA,$GPGLL,5944.5677,N,01046.2603,E,164851.000,A,A*5D,1724172531000
NMEA,$GPVTG,0.0,T,,M,0.0,N,0.0,K,A*0D,1724172531000
NMEA,$GPGSV,5,1,16,05,51,231,33,07,36,072,39,08,16,049,32,13,61,271,34*73,1724172531000
NMEA,$GPGSV,5,2,16,14,37,149,23,15,29,288,36,18,21,310,40,20,30,201,31*71,1724172531000
NMEA,$GPGSV,5,3,16,22,20,165,28,27,13,017,27,30,66,096,34*4D,1724172531000
NMEA,$GPGSV,5,4,16,08,16,049,26,14,37,149,22,18,21,310,35,27,13,017,22,8*6F,1724172531000
NMEA,$GPGSV,5,5,16,30,66,096,33,8*56,1724172531000
NMEA,$GLGSV,2,1,05,66,39,134,32,67,81,280,32,76,59,061,35,77,58,175,25*68,1724172531000
NMEA,$GLGSV,2,2,05,83,11,284,22*55,1724172531000
NMEA,$GAGSV,4,1,11,102,48,098,32,107,69,266,34,108,51,119,24,125,23,039,26*65,1724172531000
NMEA,$GAGSV,4,2,11,130,26,162,28,133,25,305,28*6D,1724172531000
NMEA,$GAGSV,4,3,11,102,48,098,30,107,69,266,36,108,51,119,25,125,23,039,28,1*75,1724172531000
NMEA,$GAGSV,4,4,11,133,25,305,27,1*70,1724172531000
NMEA,$BDGSV,3,1,08,207,23,074,33,209,15,069,23,210,23,087,28,221,20,146,23*62,1724172531000
NMEA,$BDGSV,3,2,08,224,24,206,32,226,65,151,30*65,1724172531000
NMEA,$BDGSV,3,3,08,224,24,206,25,226,65,151,27,5*7D,1724172531000
NMEA,$GPGSA,A,3,05,07,13,15,20,22,,,,,,,0.8,0.4,0.8*30,1724172531000
NMEA,$GNGSA,A,3,66,67,76,77,83,,,,,,,,0.8,0.4,0.8*23,1724172531000
NMEA,$GAGSA,A,3,130,,,,,,,,,,,,0.8,0.4,0.8*15,1724172531000
NMEA,$BDGSA,A,3,207,209,210,221,224,,,,,,,,0.8,0.4,0.8*1F,1724172531000
NMEA,$PSSGR,GSA,A,3,08,14,18,27,30,,,,,,,,0.8,0.4,0.8,1,8*43,1724172531000
NMEA,$PSSGR,GSA,A,3,102,107,108,125,,,,,,,,,0.8,0.4,0.8,3,1*40,1724172531000
NMEA,$PSSGR,GSA,A,3,226,,,,,,,,,,,,0.8,0.4,0.8,4,5*7F,1724172531000
NMEA,$GPRMC,164851.000,A,5944.5677,N,01046.2603,E,0.0,0.0,200824,,,A*66,1724172531000
NMEA,$PSAMCLK,2328,23334900,27,31675,5168,233349000*49,1724172531000
NMEA,$GPGGA,164852.000,5944.5677,N,01046.2603,E,1,28,0.4,78.4,M,40.7,M,,*6D,1724172532000
NMEA,$PSAMSA,164852.000,5944.5677,N,01046.2603,E,1,M,,*6F,1724172532000
NMEA,$GPGLL,5944.5677,N,01046.2603,E,164852.000,A,A*5E,1724172532000
NMEA,$GPVTG,0.0,T,,M,0.0,N,0.0,K,A*0D,1724172532000
NMEA,$GPGSV,5,1,16,05,51,230,33,07,36,072,38,08,16,049,33,13,61,271,34*72,1724172532000
NMEA,$GPGSV,5,2,16,14,37,149,23,15,29,288,36,18,21,310,40,20,30,201,31*71,1724172532000
NMEA,$GPGSV,5,3,16,22,20,165,28,27,13,017,26,30,66,096,34*4C,1724172532000
NMEA,$GPGSV,5,4,16,08,16,049,26,14,37,149,22,18,21,310,35,27,13,017,21,8*6C,1724172532000
NMEA,$GPGSV,5,5,16,30,66,096,33,8*56,1724172532000
NMEA,$GLGSV,2,1,05,66,39,134,32,67,81,280,32,76,59,061,35,77,58,175,25*68,1724172532000
NMEA,$GLGSV,2,2,05,83,11,284,21*56,1724172532000
NMEA,$GAGSV,4,1,12,102,48,098,32,107,69,266,34,108,51,119,24,125,23,039,26*66,1724172532000
NMEA,$GAGSV,4,2,12,130,26,162,29,133,25,305,28*6F,1724172532000
NMEA,$GAGSV,4,3,12,102,48,098,30,107,69,266,36,108,51,119,25,125,23,039,27,1*79,1724172532000
NMEA,$GAGSV,4,4,12,130,26,162,22,133,25,305,27,1*70,1724172532000
NMEA,$BDGSV,3,1,08,207,23,074,33,209,15,069,23,210,23,087,28,221,20,146,23*62,1724172532000
NMEA,$BDGSV,3,2,08,224,24,206,32,226,65,151,30*65,1724172532000
NMEA,$BDGSV,3,3,08,224,24,206,25,226,65,151,27,5*7D,1724172532000
NMEA,$GPGSA,A,3,05,07,13,15,20,22,,,,,,,0.8,0.4,0.8*30,1724172532000
NMEA,$GNGSA,A,3,66,67,76,77,83,,,,,,,,0.8,0.4,0.8*23,1724172532000
NMEA,$GAGSA,A,3,130,,,,,,,,,,,,0.8,0.4,0.8*15,1724172532000
NMEA,$BDGSA,A,3,207,209,210,221,224,226,,,,,,,0.8,0.4,0.8*29,1724172532000
NMEA,$PSSGR,GSA,A,3,08,14,18,27,30,,,,,,,,0.8,0.4,0.8,1,8*43,1724172532000
NMEA,$PSSGR,GSA,A,3,102,107,108,125,133,,,,,,,,0.8,0.4,0.8,3,1*71,1724172532000
NMEA,$GPRMC,164852.000,A,5944.5677,N,01046.2603,E,0.0,0.0,200824,,,A*65,1724172532000
NMEA,$PSAMCLK,2328,23335000,28,32502,5371,233350000*4C,1724172532000
NMEA,$GPGGA,164853.000,5944.5677,N,01046.2603,E,1,26,0.4,78.5,M,40.7,M,,*63,1724172533000
NMEA,$PSAMSA,164853.000,5944.5677,N,01046.2603,E,1,M,,*6E,1724172533000
NMEA,$GPGLL,5944.5677,N,01046.2603,E,164853.000,A,A*5F,1724172533000
NMEA,$GPVTG,0.0,T,,M,0.0,N,0.0,K,A*0D,1724172533000
NMEA,$GPGSV,5,1,16,05,51,230,33,07,36,072,38,08,16,049,33,13,61,271,34*72,1724172533000
NMEA,$GPGSV,5,2,16,14,37,149,23,15,29,288,36,18,21,310,40,20,30,201,31*71,1724172533000
NMEA,$GPGSV,5,3,16,22,20,165,28,27,13,017,26,30,66,096,35*4D,1724172533000
NMEA,$GPGSV,5,4,16,08,16,049,25,14,37,149,22,18,21,310,35,27,13,017,21,8*6F,1724172533000
NMEA,$GPGSV,5,5,16,30,66,096,33,8*56,1724172533000
NMEA,$GLGSV,2,1,05,66,39,134,31,67,81,280,31,76,59,061,34,77,58,175,25*69,1724172533000
NMEA,$GLGSV,2,2,05,83,11,284,21*56,1724172533000
NMEA,$GAGSV,4,1,13,102,48,098,32,107,69,266,34,108,51,119,24,125,23,039,25*64,1724172533000
NMEA,$GAGSV,4,2,13,126,15,255,20,130,26,162,29,133,25,305,28*6F,1724172533000
NMEA,$GAGSV,4,3,13,102,48,098,30,107,69,266,36,108,51,119,24,125,23,039,27,1*79,1724172533000
NMEA,$GAGSV,4,4,13,130,26,162,22,133,25,305,26,1*70,1724172533000
NMEA,$BDGSV,3,1,08,207,23,074,33,209,15,069,23,210,23,087,28,221,20,146,23*62,1724172533000
NMEA,$BDGSV,3,2,08,224,24,206,32,226,65,151,30*65,1724172533000
NMEA,$BDGSV,3,3,08,224,24,206,25,226,65,151,26,5*7C,1724172533000
NMEA,$GPGSA,A,3,05,07,13,15,20,22,,,,,,,0.8,0.4,0.8*30,1724172533000
NMEA,$GNGSA,A,3,66,67,76,77,83,,,,,,,,0.8,0.4,0.8*23,1724172533000
NMEA,$GAGSA,A,3,,,,,,,,,,,,,0.8,0.4,0.8*27,1724172533000
NMEA,$BDGSA,A,3,207,209,221,224,,,,,,,,,0.8,0.4,0.8*2C,1724172533000
NMEA,$PSSGR,GSA,A,3,08,14,18,27,30,,,,,,,,0.8,0.4,0.8,1,8*43,1724172533000
NMEA,$PSSGR,GSA,A,3,102,107,108,125,133,,,,,,,,0.8,0.4,0.8,3,1*71,1724172533000
NMEA,$PSSGR,GSA,A,3,226,,,,,,,,,,,,0.8,0.4,0.8,4,5*7F,1724172533000
NMEA,$GPRMC,164853.000,A,5944.5677,N,01046.2603,E,0.0,0.0,200824,,,A*64,1724172533000
NMEA,$PSAMCLK,2328,23335100,26,33316,5581,233351000*49,1724172533000
NMEA,$GPGGA,164854.000,5944.5677,N,01046.2603,E,1,28,0.4,78.5,M,40.7,M,,*6A,1724172534000
NMEA,$PSAMSA,164854.000,5944.5677,N,01046.2603,E,1,M,,*69,1724172534000
NMEA,$GPGLL,5944.5677,N,01046.2603,E,164854.000,A,A*58,1724172534000
NMEA,$GPVTG,0.0,T,,M,0.0,N,0.0,K,A*0D,1724172534000
NMEA,$GPGSV,5,1,16,05,51,230,33,07,36,072,38,08,16,049,33,13,61,271,34*72,1724172534000
NMEA,$GPGSV,5,2,16,14,37,149,23,15,29,288,36,18,21,310,40,20,30,201,31*71,1724172534000
NMEA,$GPGSV,5,3,16,22,20,165,28,27,13,017,26,30,66,096,35*4D,1724172534000
NMEA,$GPGSV,5,4,16,08,16,049,25,14,37,149,22,18,21,310,35,27,13,017,21,8*6F,1724172534000
NMEA,$GPGSV,5,5,16,30,66,096,33,8*56,1724172534000
NMEA,$GLGSV,2,1,05,66,39,134,31,67,81,280,31,76,59,061,34,77,58,175,25*69,1724172534000
NMEA,$GLGSV,2,2,05,83,11,284,21*56,1724172534000
NMEA,$GAGSV,4,1,13,102,48,098,32,107,69,266,34,108,51,119,23,125,23,039,25*63,1724172534000
NMEA,$GAGSV,4,2,13,126,15,255,20,130,26,162,29,133,25,305,28*6F,1724172534000
NMEA,$GAGSV,4,3,13,102,48,098,30,107,69,266,36,108,51,119,24,125,23,039,26,1*78,1724172534000
NMEA,$GAGSV,4,4,13,130,26,162,23,133,25,305,26,1*71,1724172534000
NMEA,$BDGSV,3,1,08,207,23,074,33,209,15,069,23,210,23,087,28,221,20,146,23*62,1724172534000
NMEA,$BDGSV,3,2,08,224,24,206,32,226,65,151,30*65,1724172534000
NMEA,$BDGSV,3,3,08,224,24,206,25,226,65,151,26,5*7C,1724172534000
NMEA,$GPGSA,A,3,05,07,13,15,20,,,,,,,,0.8,0.4,0.8*30,1724172534000
NMEA,$GNGSA,A,3,66,67,76,77,83,,,,,,,,0.8,0.4,0.8*23,1724172534000
NMEA,$GAGSA,A,3,126,130,,,,,,,,,,,0.8,0.4,0.8*20,1724172534000
NMEA,$BDGSA,A,3,207,209,210,221,224,226,,,,,,,0.8,0.4,0.8*29,1724172534000
NMEA,$PSSGR,GSA,A,3,08,14,18,27,30,,,,,,,,0.8,0.4,0.8,1,8*43,1724172534000
NMEA,$PSSGR,GSA,A,3,102,107,108,125,133,,,,,,,,0.8,0.4,0.8,3,1*71,1724172534000
NMEA,$GPRMC,164854.000,A,5944.5677,N,01046.2603,E,0.0,0.0,200824,,,A*63,1724172534000
NMEA,$PSAMCLK,2328,23335200,28,34124,5795,233352000*44,1724172534000
NMEA,$GPGGA,164855.000,5944.5677,N,01046.2602,E,1,29,0.4,78.5,M,40.7,M,,*6B,1724172535000
NMEA,$PSAMSA,164855.000,5944.5677,N,01046.2602,E,1,M,,*69,1724172535000
NMEA,$GPGLL,5944.5677,N,01046.2602,E,164855.000,A,A*58,1724172535000
NMEA,$GPVTG,0.0,T,,M,0.0,N,0.0,K,A*0D,1724172535000
NMEA,$GPGSV,5,1,16,05,51,230,32,07,36,072,38,08,16,049,33,13,61,271,34*73,1724172535000
NMEA,$GPGSV,5,2,16,14,37,149,23,15,29,288,36,18,21,310,40,20,30,201,31*71,1724172535000
NMEA,$GPGSV,5,3,16,22,20,165,29,27,13,017,26,30,66,096,35*4C,1724172535000
NMEA,$GPGSV,5,4,16,08,16,049,25,14,37,149,22,18,21,310,35,27,13,017,21,8*6F,1724172535000
NMEA,$GPGSV,5,5,16,30,66,096,33,8*56,1724172535000
NMEA,$GLGSV,2,1,05,66,39,134,31,67,81,280,31,76,59,061,34,77,58,175,24*68,1724172535000
NMEA,$GLGSV,2,2,05,83,11,284,21*56,1724172535000
NMEA,$GAGSV,4,1,13,102,48,098,32,107,69,266,34,108,51,119,23,125,23,039,25*63,1724172535000
NMEA,$GAGSV,4,2,13,126,15,255,20,130,26,162,29,133,25,305,28*6F,1724172535000
NMEA,$GAGSV,4,3,13,102,48,098,30,107,69,266,36,108,51,119,24,125,23,039,26,1*78,1724172535000
NMEA,$GAGSV,4,4,13,130,26,162,23,133,25,305,26,1*71,1724172535000
NMEA,$BDGSV,3,1,08,207,23,074,33,209,15,069,23,210,23,087,27,221,20,146,22*6C,1724172535000
NMEA,$BDGSV,3,2,08,224,24,206,32,226,65,151,30*65,1724172535000
NMEA,$BDGSV,3,3,08,224,24,206,25,226,65,151,26,5*7C,1724172535000
NMEA,$GPGSA,A,3,05,07,13,15,20,22,,,,,,,0.8,0.4,0.6*3E,1724172535000
NMEA,$GNGSA,A,3,66,67,76,77,83,,,,,,,,0.8,0.4,0.6*2D,1724172535000
NMEA,$GAGSA,A,3,126,130,,,,,,,,,,,0.8,0.4,0.6*2E,1724172535000
NMEA,$BDGSA,A,3,207,209,210,221,224,,,,,,,,0.8,0.4,0.6*11,1724172535000
NMEA,$PSSGR,GSA,A,3,08,14,18,27,30,,,,,,,,0.8,0.4,0.6,1,8*4D,1724172535000
NMEA,$PSSGR,GSA,A,3,102,107,108,125,133,,,,,,,,0.8,0.4,0.6,3,1*7F,1724172535000
NMEA,$PSSGR,GSA,A,3,226,,,,,,,,,,,,0.8,0.4,0.6,4,5*71,1724172535000
NMEA,$GPRMC,164855.000,A,5944.5677,N,01046.2602,E,0.0,0.0,200824,,,A*63,1724172535000
NMEA,$PSAMCLK,2328,23335300,29,34889,6012,233353000*40,1724172535000
NMEA,$GPGGA,164856.000,5944.5677,N,01046.2602,E,1,29,0.4,78.6,M,40.7,M,,*6B,1724172536000
NMEA,$PSAMSA,164856.000,5944.5677,N,01046.2602,E,1,M,,*6A,1724172536000
NMEA,$GPGLL,5944.5677,N,01046.2602,E,164856.000,A,A*5B,1724172536000
NMEA,$GPVTG,0.0,T,,M,0.0,N,0.0,K,A*0D,1724172536000
NMEA,$GPGSV,5,1,16,05,51,230,32,07,36,072,38,08,16,049,33,13,61,271,34*73,1724172536000
NMEA,$GPGSV,5,2,16,14,37,149,23,15,29,288,36,18,21,310,40,20,30,201,31*71,1724172536000
NMEA,$GPGSV,5,3,16,22,20,165,29,27,13,017,25,30,66,096,35*4F,1724172536000
NMEA,$GPGSV,5,4,16,08,16,049,25,14,37,149,22,18,21,310,35,27,13,017,21,8*6F,1724172536000
NMEA,$GPGSV,5,5,16,30,66,096,33,8*56,1724172536000
NMEA,$GLGSV,2,1,05,66,39,134,31,67,81,280,31,76,59,061,34,77,58,175,24*68,1724172536000
NMEA,$GLGSV,2,2,05,83,11,284,21*56,1724172536000
NMEA,$GAGSV,4,1,13,102,48,098,32,107,69,266,33,108,51,119,23,125,23,039,25*64,1724172536000
NMEA,$GAGSV,4,2,13,126,15,255,20,130,26,162,29,133,25,305,28*6F,1724172536000
NMEA,$GAGSV,4,3,13,102,48,098,30,107,69,266,36,108,51,119,25,125,23,039,26,1*79,1724172536000
NMEA,$GAGSV,4,4,13,130,26,162,24,133,25,305,26,1*76,1724172536000
NMEA,$BDGSV,3,1,09,207,23,074,33,209,15,069,23,210,23,087,27,221,20,146,22*6D,1724172536000
NMEA,$BDGSV,3,2,09,224,24,206,32,226,65,151,30*64,1724172536000
NMEA,$BDGSV,3,3,09,221,20,146,19,224,24,206,25,226,65,151,26,5*75,1724172536000
NMEA,$GPGSA,A,3,05,07,13,15,20,22,,,,,,,0.8,0.4,0.6*3E,1724172536000
NMEA,$GNGSA,A,3,66,67,76,77,83,,,,,,,,0.8,0.4,0.6*2D,1724172536000
NMEA,$GAGSA,A,3,126,130,,,,,,,,,,,0.8,0.4,0.6*2E,1724172536000
NMEA,$BDGSA,A,3,207,209,210,221,224,,,,,,,,0.8,0.4,0.6*11,1724172536000
NMEA,$PSSGR,GSA,A,3,08,14,18,27,30,,,,,,,,0.8,0.4,0.6,1,8*4D,1724172536000
NMEA,$PSSGR,GSA,A,3,102,107,108,125,133,,,,,,,,0.8,0.4,0.6,3,1*7F,1724172536000
NMEA,$PSSGR,GSA,A,3,226,,,,,,,,,,,,0.8,0.4,0.6,4,5*71,1724172536000
NMEA,$GPRMC,164856.000,A,5944.5677,N,01046.2602,E,0.0,0.0,200824,,,A*60,1724172536000
NMEA,$PSAMCLK,2328,23335400,29,35626,6234,233354000*4C,1724172536000
NMEA,$GPGGA,164857.000,5944.5677,N,01046.2601,E,1,26,0.4,78.7,M,40.7,M,,*67,1724172537000
NMEA,$PSAMSA,164857.000,5944.5677,N,01046.2601,E,1,M,,*68,1724172537000
NMEA,$GPGLL,5944.5677,N,01046.2601,E,164857.000,A,A*59,1724172537000
NMEA,$GPVTG,0.0,T,,M,0.0,N,0.0,K,A*0D,1724172537000
NMEA,$GPGSV,5,1,16,05,51,230,32,07,36,072,38,08,16,049,33,13,61,271,33*74,1724172537000
NMEA,$GPGSV,5,2,16,14,37,149,23,15,30,288,36,18,21,310,40,20,30,201,31*79,1724172537000
NMEA,$GPGSV,5,3,16,22,20,165,29,27,13,017,25,30,66,096,35*4F,1724172537000
NMEA,$GPGSV,5,4,16,08,16,049,25,14,37,149,22,18,21,310,35,27,13,017,21,8*6F,1724172537000
NMEA,$GPGSV,5,5,16,30,66,096,33,8*56,1724172537000
NMEA,$GLGSV,2,1,05,66,39,134,31,67,81,280,31,76,59,061,34,77,58,175,24*68,1724172537000
NMEA,$GLGSV,2,2,05,83,11,284,21*56,1724172537000
NMEA,$GAGSV,4,1,13,102,48,098,32,107,69,266,33,108,51,119,23,125,23,039,25*64,1724172537000
NMEA,$GAGSV,4,2,13,126,15,255,20,130,26,162,29,133,25,305,28*6F,1724172537000
NMEA,$GAGSV,4,3,13,102,48,098,30,107,69,266,36,108,51,119,25,125,23,039,25,1*7A,1724172537000
NMEA,$GAGSV,4,4,13,130,26,162,24,133,25,305,25,1*75,1724172537000
NMEA,$BDGSV,3,1,09,207,23,074,33,209,15,069,23,210,23,087,27,221,20,146,22*6D,1724172537000
NMEA,$BDGSV,3,2,09,224,24,206,32,226,65,151,30*64,1724172537000
NMEA,$BDGSV,3,3,09,221,20,146,19,224,24,206,25,226,65,151,26,5*75,1724172537000
NMEA,$GPGSA,A,3,05,07,13,15,20,,,,,,,,1.0,0.4,0.8*39,1724172537000
NMEA,$GNGSA,A,3,66,67,76,77,,,,,,,,,1.0,0.4,0.8*21,1724172537000
NMEA,$GAGSA,A,3,130,,,,,,,,,,,,1.0,0.4,0.8*1C,1724172537000
NMEA,$BDGSA,A,3,207,209,210,221,224,,,,,,,,1.0,0.4,0.8*16,1724172537000
NMEA,$PSSGR,GSA,A,3,08,14,18,27,30,,,,,,,,1.0,0.4,0.8,1,8*4A,1724172537000
NMEA,$PSSGR,GSA,A,3,102,107,108,125,133,,,,,,,,1.0,0.4,0.8,3,1*78,1724172537000
NMEA,$PSSGR,GSA,A,3,226,,,,,,,,,,,,1.0,0.4,0.8,4,5*76,1724172537000
NMEA,$GPRMC,164857.000,A,5944.5677,N,01046.2601,E,0.0,0.0,200824,,,A*62,1724172537000
NMEA,$PSAMCLK,2328,23335500,26,36376,6463,233355000*44,1724172537000
NMEA,$GPGGA,164858.000,5944.5677,N,01046.2601,E,1,29,0.4,78.7,M,40.7,M,,*67,1724172538000
NMEA,$PSAMSA,164858.000,5944.5677,N,01046.2601,E,1,M,,*67,1724172538000
NMEA,$GPGLL,5944.5677,N,01046.2601,E,164858.000,A,A*56,1724172538000
NMEA,$GPVTG,0.0,T,,M,0.0,N,0.0,K,A*0D,1724172538000
NMEA,$GPGSV,5,1,16,05,51,230,32,07,36,072,38,08,16,049,33,13,61,271,33*74,1724172538000
NMEA,$GPGSV,5,2,16,14,37,149,23,15,30,288,36,18,21,310,40,20,30,201,31*79,1724172538000
NMEA,$GPGSV,5,3,16,22,20,165,29,27,13,017,25,30,66,096,35*4F,1724172538000
NMEA,$GPGSV,5,4,16,08,16,049,25,14,37,149,22,18,21,310,35,27,13,017,21,8*6F,1724172538000
NMEA,$GPGSV,5,5,16,30,66,096,33,8*56,1724172538000
NMEA,$GLGSV,2,1,05,66,39,134,31,67,81,280,31,76,59,061,34,77,58,175,24*68,1724172538000
NMEA,$GLGSV,2,2,05,83,11,284,21*56,1724172538000
NMEA,$GAGSV,4,1,13,102,48,098,32,107,69,266,33,108,51,119,23,125,23,039,24*65,1724172538000
NMEA,$GAGSV,4,2,13,126,15,255,21,130,26,162,29,133,25,305,28*6E,1724172538000
NMEA,$GAGSV,4,3,13,102,48,098,30,107,69,266,36,108,51,119,24,125,23,039,25,1*7B,1724172538000
NMEA,$GAGSV,4,4,13,130,26,162,23,133,25,305,25,1*72,1724172538000
NMEA,$BDGSV,3,1,09,207,23,074,33,209,15,069,24,210,23,087,27,221,20,146,22*6A,1724172538000
NMEA,$BDGSV,3,2,09,224,24,206,32,226,65,151,30*64,1724172538000
NMEA,$BDGSV,3,3,09,221,20,146,18,224,24,206,24,226,65,151,26,5*75,1724172538000
NMEA,$GPGSA,A,3,05,07,13,15,20,22,,,,,,,0.8,0.4,0.6*3E,1724172538000
NMEA,$GNGSA,A,3,66,67,76,77,83,,,,,,,,0.8,0.4,0.6*2D,1724172538000
NMEA,$GAGSA,A,3,126,130,,,,,,,,,,,0.8,0.4,0.6*2E,1724172538000
NMEA,$BDGSA,A,3,207,209,210,221,224,,,,,,,,0.8,0.4,0.6*11,1724172538000
NMEA,$PSSGR,GSA,A,3,08,14,18,27,30,,,,,,,,0.8,0.4,0.6,1,8*4D,1724172538000
NMEA,$PSSGR,GSA,A,3,102,107,108,125,133,,,,,,,,0.8,0.4,0.6,3,1*7F,1724172538000
NMEA,$PSSGR,GSA,A,3,226,,,,,,,,,,,,0.8,0.4,0.6,4,5*71,1724172538000
NMEA,$GPRMC,164858.000,A,5944.5677,N,01046.2601,E,0.0,0.0,200824,,,A*6D,1724172538000
NMEA,$PSAMCLK,2328,23335600,29,37179,6697,233356000*4E,1724172538000
NMEA,$GPGGA,164859.000,5944.5677,N,01046.2601,E,1,28,0.4,78.7,M,40.7,M,,*67,1724172539000
NMEA,$PSAMSA,164859.000,5944.5677,N,01046.2601,E,1,M,,*66,1724172539000
NMEA,$GPGLL,5944.5677,N,01046.2601,E,164859.000,A,A*57,1724172539000
NMEA,$GPVTG,0.0,T,,M,0.0,N,0.0,K,A*0D,1724172539000
NMEA,$GPGSV,5,1,16,05,51,230,32,07,36,072,38,08,16,049,33,13,61,271,33*74,1724172539000
NMEA,$GPGSV,5,2,16,14,37,149,23,15,30,288,36,18,21,310,40,20,30,201,31*79,1724172539000
NMEA,$GPGSV,5,3,16,22,20,165,29,27,13,017,25,30,66,096,35*4F,1724172539000
NMEA,$GPGSV,5,4,16,08,16,049,25,14,37,149,22,18,21,310,34,27,13,017,21,8*6E,1724172539000
NMEA,$GPGSV,5,5,16,30,66,096,33,8*56,1724172539000
NMEA,$GLGSV,2,1,05,66,39,134,31,67,81,280,31,76,59,061,34,77,58,175,24*68,1724172539000
NMEA,$GLGSV,2,2,05,83,11,284,20*57,1724172539000
NMEA,$GAGSV,4,1,13,102,48,098,32,107,69,266,33,108,51,119,22,125,23,039,24*64,1724172539000
NMEA,$GAGSV,4,2,13,126,15,255,21,130,26,162,29,133,25,305,27*61,1724172539000
NMEA,$GAGSV,4,3,13,102,48,098,30,107,69,266,36,108,51,119,24,125,23,039,25,1*7B,1724172539000
NMEA,$GAGSV,4,4,13,130,26,162,23,133,25,305,25,1*72,1724172539000
NMEA,$BDGSV,3,1,09,207,23,074,33,209,15,069,24,210,23,087,27,221,20,146,22*6A,1724172539000
NMEA,$BDGSV,3,2,09,224,24,206,31,226,65,151,30*67,1724172539000
NMEA,$BDGSV,3,3,09,221,20,146,18,224,24,206,24,226,65,151,26,5*75,1724172539000
NMEA,$GPGSA,A,3,05,07,13,15,20,22,,,,,,,0.8,0.4,0.6*3E,1724172539000
NMEA,$GNGSA,A,3,66,67,76,77,83,,,,,,,,0.8,0.4,0.6*2D,1724172539000
NMEA,$GAGSA,A,3,126,130,,,,,,,,,,,0.8,0.4,0.6*2E,1724172539000
NMEA,$BDGSA,A,3,207,209,210,221,224,,,,,,,,0.8,0.4,0.6*11,1724172539000
NMEA,$PSSGR,GSA,A,3,08,14,18,27,30,,,,,,,,0.8,0.4,0.6,1,8*4D,1724172539000
NMEA,$PSSGR,GSA,A,3,102,107,108,125,,,,,,,,,0.8,0.4,0.6,3,1*4E,1724172539000
NMEA,$PSSGR,GSA,A,3,226,,,,,,,,,,,,0.8,0.4,0.6,4,5*71,1724172539000
NMEA,$GPRMC,164859.000,A,5944.5677,N,01046.2601,E,0.0,0.0,200824,,,A*6C,1724172539000
NMEA,$PSAMCLK,2328,23335700,28,37919,6936,233357000*45,1724172539000
NMEA,$GPGGA,164900.000,5944.5677,N,01046.2601,E,1,29,0.4,78.7,M,40.7,M,,*6B,1724172540000
NMEA,$PSAMSA,164900.000,5944.5677,N,01046.2601,E,1,M,,*6B,1724172540000
NMEA,$GPGLL,5944.5677,N,01046.2601,E,164900.000,A,A*5A,1724172540000
NMEA,$GPVTG,0.0,T,,M,0.0,N,0.0,K,A*0D,1724172540000
NMEA,$GPGSV,5,1,16,05,51,230,31,07,36,072,38,08,16,049,33,13,61,271,33*77,1724172540000
NMEA,$GPGSV,5,2,16,14,37,149,23,15,30,288,36,18,21,310,40,20,30,201,31*79,1724172540000
NMEA,$GPGSV,5,3,16,22,21,165,29,27,13,017,25,30,66,096,35*4E,1724172540000
NMEA,$GPGSV,5,4,16,08,16,049,25,14,37,149,22,18,21,310,34,27,13,017,23,8*6C,1724172540000
NMEA,$GPGSV,5,5,16,30,66,096,33,8*56,1724172540000
NMEA,$GLGSV,2,1,05,66,39,134,31,67,81,280,31,76,59,061,34,77,58,175,24*68,1724172540000
NMEA,$GLGSV,2,2,05,83,11,284,20*57,1724172540000
NMEA,$GAGSV,4,1,13,102,48,098,32,107,69,266,33,108,51,119,22,125,23,039,24*64,1724172540000
NMEA,$GAGSV,4,2,13,126,15,255,21,130,26,162,29,133,25,305,27*61,1724172540000
NMEA,$GAGSV,4,3,13,102,48,098,30,107,69,266,36,108,51,119,24,125,23,039,25,1*7B,1724172540000
NMEA,$GAGSV,4,4,13,130,26,162,23,133,25,305,25,1*72,1724172540000
NMEA,$BDGSV,3,1,09,207,23,074,33,209,15,069,24,210,23,087,27,221,20,146,22*6A,1724172540000
NMEA,$BDGSV,3,2,09,224,24,206,31,226,65,151,30*67,1724172540000
NMEA,$BDGSV,3,3,09,221,20,146,18,224,24,206,24,226,65,151,26,5*75,1724172540000
NMEA,$GPGSA,A,3,05,07,13,15,20,22,,,,,,,0.8,0.4,0.6*3E,1724172540000
NMEA,$GNGSA,A,3,66,67,76,77,83,,,,,,,,0.8,0.4,0.6*2D,1724172540000
NMEA,$GAGSA,A,3,126,130,,,,,,,,,,,0.8,0.4,0.6*2E,1724172540000
NMEA,$BDGSA,A,3,207,209,210,221,224,,,,,,,,0.8,0.4,0.6*11,1724172540000
NMEA,$PSSGR,GSA,A,3,08,14,18,27,30,,,,,,,,0.8,0.4,0.6,1,8*4D,1724172540000
NMEA,$PSSGR,GSA,A,3,102,107,108,125,133,,,,,,,,0.8,0.4,0.6,3,1*7F,1724172540000
NMEA,$PSSGR,GSA,A,3,226,,,,,,,,,,,,0.8,0.4,0.6,4,5*71,1724172540000
NMEA,$GPRMC,164900.000,A,5944.5677,N,01046.2601,E,0.0,0.0,200824,,,A*61,1724172540000
NMEA,$PSAMCLK,2328,23335800,29,38564,7179,233358000*4F,1724172540000
NMEA,$GPGGA,164901.000,5944.5677,N,01046.2601,E,1,28,0.4,78.7,M,40.7,M,,*6B,1724172541000
NMEA,$PSAMSA,164901.000,5944.5677,N,01046.2601,E,1,M,,*6A,1724172541000
NMEA,$GPGLL,5944.5677,N,01046.2601,E,164901.000,A,A*5B,1724172541000
NMEA,$GPVTG,0.0,T,,M,0.0,N,0.0,K,A*0D,1724172541000
NMEA,$GPGSV,5,1,16,05,51,230,31,07,36,072,38,08,16,049,33,13,61,271,33*77,1724172541000
NMEA,$GPGSV,5,2,16,14,37,149,23,15,30,288,36,18,21,310,40,20,30,201,31*79,1724172541000
NMEA,$GPGSV,5,3,16,22,21,165,29,27,13,017,25,30,66,096,35*4E,1724172541000
NMEA,$GPGSV,5,4,16,08,16,049,25,14,37,149,22,18,21,310,34,27,13,017,23,8*6C,1724172541000
NMEA,$GPGSV,5,5,16,30,66,096,34,8*51,1724172541000
NMEA,$GLGSV,2,1,05,66,39,134,31,67,81,280,31,76,59,061,34,77,58,175,24*68,1724172541000
NMEA,$GLGSV,2,2,05,83,11,284,20*57,1724172541000
NMEA,$GAGSV,4,1,13,102,48,098,32,107,69,266,33,108,51,119,22,125,23,039,24*64,1724172541000
NMEA,$GAGSV,4,2,13,126,15,255,21,130,26,162,29,133,25,305,27*61,1724172541000
NMEA,$GAGSV,4,3,13,102,48,098,29,107,69,266,36,108,51,119,24,125,23,039,24,1*72,1724172541000
NMEA,$GAGSV,4,4,13,130,26,162,23,133,25,305,24,1*73,1724172541000
NMEA,$BDGSV,3,1,08,207,23,074,33,209,15,069,24,210,23,087,27,221,20,146,22*6B,1724172541000
NMEA,$BDGSV,3,2,08,224,24,206,31,226,65,151,30*66,1724172541000
NMEA,$BDGSV,3,3,08,224,24,206,24,226,65,151,26,5*7D,1724172541000
NMEA,$GPGSA,A,3,05,07,13,15,20,,,,,,,,0.8,0.4,0.8*30,1724172541000
NMEA,$GNGSA,A,3,66,67,76,77,83,,,,,,,,0.8,0.4,0.8*23,1724172541000
NMEA,$GAGSA,A,3,126,130,,,,,,,,,,,0.8,0.4,0.8*20,1724172541000
NMEA,$BDGSA,A,3,207,209,210,221,224,,,,,,,,0.8,0.4,0.8*1F,1724172541000
NMEA,$PSSGR,GSA,A,3,08,14,18,27,30,,,,,,,,0.8,0.4,0.8,1,8*43,1724172541000
NMEA,$PSSGR,GSA,A,3,102,107,108,125,133,,,,,,,,0.8,0.4,0.8,3,1*71,1724172541000
NMEA,$PSSGR,GSA,A,3,226,,,,,,,,,,,,0.8,0.4,0.8,4,5*7F,1724172541000
NMEA,$GPRMC,164901.000,A,5944.5677,N,01046.2601,E,0.0,0.0,200824,,,A*60,1724172541000
NMEA,$PSAMCLK,2328,23335900,28,39087,7426,233359000*48,1724172541000
NMEA,$GPGGA,164902.000,5944.5677,N,01046.2601,E,1,28,0.4,78.7,M,40.7,M,,*68,1724172542000
NMEA,$PSAMSA,164902.000,5944.5677,N,01046.2601,E,1,M,,*69,1724172542000
NMEA,$GPGLL,5944.5677,N,01046.2601,E,164902.000,A,A*58,1724172542000
NMEA,$GPVTG,0.0,T,,M,0.0,N,0.0,K,A*0D,1724172542000
NMEA,$GPGSV,5,1,16,05,51,230,31,07,36,072,38,08,16,049,33,13,61,271,33*77,1724172542000
NMEA,$GPGSV,5,2,16,14,37,149,23,15,30,288,36,18,21,310,40,20,30,201,31*79,1724172542000
NMEA,$GPGSV,5,3,16,22,21,165,29,27,13,017,24,30,66,096,35*4F,1724172542000
NMEA,$GPGSV,5,4,16,08,16,049,25,14,37,149,22,18,21,310,34,27,13,017,23,8*6C,1724172542000
NMEA,$GPGSV,5,5,16,30,66,096,34,8*51,1724172542000
NMEA,$GLGSV,2,1,05,66,39,134,31,67,81,280,31,76,59,061,34,77,58,175,24*68,1724172542000
NMEA,$GLGSV,2,2,05,83,11,284,20*57,1724172542000
NMEA,$GAGSV,4,1,13,102,48,098,32,107,69,266,33,108,51,119,22,125,23,039,24*64,1724172542000
NMEA,$GAGSV,4,2,13,126,15,255,21,130,26,162,29,133,25,305,27*61,1724172542000
NMEA,$GAGSV,4,3,13,102,48,098,29,107,69,266,36,108,51,119,24,125,23,039,24,1*72,1724172542000
NMEA,$GAGSV,4,4,13,130,26,162,23,133,25,305,24,1*73,1724172542000
NMEA,$BDGSV,3,1,09,207,23,074,33,209,15,069,24,210,23,087,27,221,20,146,22*6A,1724172542000
NMEA,$BDGSV,3,2,09,224,24,206,31,226,65,151,30*67,1724172542000
NMEA,$BDGSV,3,3,09,224,24,206,24,226,65,151,26,5*7C,1724172542000
NMEA,$GPGSA,A,3,05,07,13,15,20,22,,,,,,,0.8,0.4,0.8*30,1724172542000
NMEA,$GNGSA,A,3,66,67,76,77,83,,,,,,,,0.8,0.4,0.8*23,1724172542000
NMEA,$GAGSA,A,3,130,,,,,,,,,,,,0.8,0.4,0.8*15,1724172542000
NMEA,$BDGSA,A,3,207,209,210,221,224,,,,,,,,0.8,0.4,0.8*1F,1724172542000
NMEA,$PSSGR,GSA,A,3,08,14,18,27,30,,,,,,,,0.8,0.4,0.8,1,8*43,1724172542000
NMEA,$PSSGR,GSA,A,3,102,107,108,125,133,,,,,,,,0.8,0.4,0.8,3,1*71,1724172542000
NMEA,$PSSGR,GSA,A,3,226,,,,,,,,,,,,0.8,0.4,0.8,4,5*7F,1724172542000
NMEA,$GPRMC,164902.000,A,5944.5677,N,01046.2601,E,0.0,0.0,200824,,,A*63,1724172542000
NMEA,$PSAMCLK,2328,23336000,28,39510,7676,233360000*44,1724172542000
NMEA,$GPGGA,164903.000,5944.5677,N,01046.2601,E,1,28,0.4,78.7,M,40.7,M,,*69,1724172543000
NMEA,$PSAMSA,164903.000,5944.5677,N,01046.2601,E,1,M,,*68,1724172543000
NMEA,$GPGLL,5944.5677,N,01046.2601,E,164903.000,A,A*59,1724172543000
NMEA,$GPVTG,0.0,T,,M,0.0,N,0.0,K,A*0D,1724172543000
NMEA,$GPGSV,5,1,16,05,51,230,31,07,36,072,38,08,16,049,33,13,61,271,33*77,1724172543000
NMEA,$GPGSV,5,2,16,14,37,149,23,15,30,288,36,18,21,310,40,20,30,201,31*79,1724172543000
NMEA,$GPGSV,5,3,16,22,21,165,29,27,13,016,24,30,66,096,35*4E,1724172543000
NMEA,$GPGSV,5,4,16,08,16,049,25,14,37,149,22,18,21,310,34,27,13,016,23,8*6D,1724172543000
NMEA,$GPGSV,5,5,16,30,66,096,34,8*51,1724172543000
NMEA,$GLGSV,2,1,05,66,39,134,31,67,81,280,31,76,59,061,34,77,58,175,24*68,1724172543000
NMEA,$GLGSV,2,2,05,83,11,284,20*57,1724172543000
NMEA,$GAGSV,4,1,13,102,48,098,32,107,69,266,33,108,51,119,22,125,23,039,24*64,1724172543000
NMEA,$GAGSV,4,2,13,126,15,255,21,130,26,162,29,133,25,305,27*61,1724172543000
NMEA,$GAGSV,4,3,13,102,48,098,29,107,69,266,36,108,51,119,24,125,23,039,24,1*72,1724172543000
NMEA,$GAGSV,4,4,13,130,26,162,23,133,25,305,24,1*73,1724172543000
NMEA,$BDGSV,3,1,09,207,23,074,33,209,15,069,24,210,23,087,27,221,20,146,22*6A,1724172543000
NMEA,$BDGSV,3,2,09,224,24,206,31,226,65,151,30*67,1724172543000
NMEA,$BDGSV,3,3,09,224,24,206,24,226,65,151,26,5*7C,1724172543000
NMEA,$GPGSA,A,3,05,07,13,15,20,22,,,,,,,0.8,0.4,0.6*3E,1724172543000
NMEA,$GNGSA,A,3,66,67,76,77,83,,,,,,,,0.8,0.4,0.6*2D,1724172543000
NMEA,$GAGSA,A,3,126,130,,,,,,,,,,,0.8,0.4,0.6*2E,1724172543000
NMEA,$BDGSA,A,3,207,209,221,224,,,,,,,,,0.8,0.4,0.6*22,1724172543000
NMEA,$PSSGR,GSA,A,3,08,14,18,27,30,,,,,,,,0.8,0.4,0.6,1,8*4D,1724172543000
NMEA,$PSSGR,GSA,A,3,102,107,108,125,133,,,,,,,,0.8,0.4,0.6,3,1*7F,1724172543000
NMEA,$PSSGR,GSA,A,3,226,,,,,,,,,,,,0.8,0.4,0.6,4,5*71,1724172543000
NMEA,$GPRMC,164903.000,A,5944.5677,N,01046.2601,E,0.0,0.0,200824,,,A*62,1724172543000
NMEA,$PSAMCLK,2328,23336100,28,39836,7929,233361000*48,1724172543000
NMEA,$GPGGA,164904.000,5944.5677,N,01046.2601,E,1,26,0.4,78.7,M,40.7,M,,*60,1724172544000
NMEA,$PSAMSA,164904.000,5944.5677,N,01046.2601,E,1,M,,*6F,1724172544000
NMEA,$GPGLL,5944.5677,N,01046.2601,E,164904.000,A,A*5E,1724172544000
NMEA,$GPVTG,0.0,T,,M,0.0,N,0.0,K,A*0D,1724172544000
