9,049,27,76,06,290,,77,20,332,,78,12,031,*66
$GLGSV,2,2,08,84,26,135,,85,82,171,28,86,38,309,22,,,,17*51
$GNGLL,5939.93157,N,01046.68007,E,083957.00,A,A*72
$GNRMC,083958.00,A,5939.93190,N,01046.67973,E,0.633,,270824,,,A*67
$GNVTG,,T,,M,0.633,N,1.173,K,A*3F
$GNGGA,083958.00,5939.93190,N,01046.67973,E,1,10,1.49,83.6,M,38.7,M,,*7A
$GNGSA,A,3,02,17,22,03,32,19,21,,,,,,2.97,1.49,2.57*11
$GNGSA,A,3,86,85,69,,,,,,,,,,2.97,1.49,2.57*10
$GPGSV,2,1,08,02,76,173,31,03,45,236,22,17,36,304,14,19,15,321,10*7F
$GPGSV,2,2,08,21,60,141,24,22,20,289,16,24,00,354,,32,37,058,22*7C
$GLGSV,2,1,08,69,49,049,27,76,06,290,,77,20,332,,78,12,031,*66
$GLGSV,2,2,08,84,26,135,,85,82,171,28,86,38,309,22,,,,14*52
$GNGLL,5939.93190,N,01046.67973,E,083958.00,A,A*73
$GNRMC,083959.00,A,5939.93218,N,01046.67997,E,0.486,,270824,,,A*63
$GNVTG,,T,,M,0.486,N,0.900,K,A*3E
$GNGGA,083959.00,5939.93218,N,01046.67997,E,1,10,1.49,84.0,M,38.7,M,,*73
$GNGSA,A,3,02,17,22,03,32,19,21,,,,,,2.97,1.49,2.57*11
$GNGSA,A,3,86,85,69,,,,,,,,,,2.97,1.49,2.57*10
$GPGSV,2,1,08,02,76,173,23,03,45,236,21,17,36,304,18,19,15,321,15*76
$GPGSV,2,2,08,21,60,141,24,22,20,289,19,24,00,354,,32,37,058,20*71
$GLGSV,2,1,08,69,49,049,27,76,06,290,,77,20,332,,78,12,031,*66
$GLGSV,2,2,08,84,26,135,,85,82,171,27,86,38,309,22,,,,12*5B
$GNGLL,5939.93218,N,01046.67997,E,083959.00,A,A*7B
$GNRMC,084000.00,A,5939.93211,N,01046.68043,E,0.288,,270824,,,A*6F
$GNVTG,,T,,M,0.288,N,0.533,K,A*3A
$GNGGA,084000.00,5939.93211,N,01046.68043,E,1,09,1.69,84.0,M,38.7,M,,*7D
$GNGSA,A,3,02,17,22,03,32,19,21,,,,,,3.33,1.69,2.87*11
$GNGSA,A,3,85,69,,,,,,,,,,,3.33,1.69,2.87*1E
$GPGSV,2,1,08,02,76,173,21,03,45,236,19,17,36,304,22,19,15,321,11*72
$GPGSV,2,2,08,21,60,141,27,22,20,289,21,24,00,354,,32,37,058,18*72
$GLGSV,2,1,08,69,49,049,28,76,06,290,,77,20,332,,78,12,031,*69
$GLGSV,2,2,08,84,26,135,,85,82,171,28,86,38,309,,,,,18*5E
$GNGLL,5939.93211,N,01046.68043,E,084000.00,A,A*7F
$GNRMC,084001.00,A,5939.93220,N,01046.68054,E,0.345,,270824,,,A*6A
$GNVTG,,T,,M,0.345,N,0.640,K,A*3D
$GNGGA,084001.00,5939.93220,N,01046.68054,E,1,09,1.69,84.3,M,38.7,M,,*7B
$GNGSA,A,3,02,17,22,03,32,19,21,,,,,,3.33,1.69,2.87*11
$GNGSA,A,3,85,69,,,,,,,,,,,3.33,1.69,2.87*1E
$GPGSV,2,1,08,02,76,173,20,03,45,236,15,17,36,304,24,19,15,321,10*78
$GPGSV,2,2,08,21,60,141,27,22,20,289,20,24,00,354,,32,37,058,19*72
$GLGSV,2,1,07,69,49,049,28,76,06,290,,77,20,332,,78,12,031,*66
$GLGSV,2,2,07,84,26,135,,85,82,171,29,86,38,309,25*5E
$GNGLL,5939.93220,N,01046.68054,E,084001.00,A,A*7A
$GNRMC,084002.00,A,5939.93227,N,01046.68057,E,0.247,,270824,,,A*6E
$GNVTG,,T,,M,0.247,N,0.458,K,A*35
$GNGGA,084002.00,5939.93227,N,01046.68057,E,1,08,1.71,84.9,M,38.7,M,,*7E
$GNGSA,A,3,02,17,22,03,32,21,,,,,,,3.41,1.71,2.95*16
$GNGSA,A,3,85,69,,,,,,,,,,,3.41,1.71,2.95*11
$GPGSV,2,1,08,02,76,173,22,03,45,236,13,17,36,304,25,19,15,321,07*7B
$GPGSV,2,2,08,21,60,141,26,22,20,289,19,24,00,354,,32,37,058,18*78
$GLGSV,2,1,07,69,49,049,28,76,06,290,,77,20,332,,78,12,031,*66
$GLGSV,2,2,07,84,26,135,,85,82,171,29,86,38,309,26*5D
$GNGLL,5939.93227,N,01046.68057,E,084002.00,A,A*7D
$GNRMC,084003.00,A,5939.93235,N,01046.68052,E,0.211,,270824,,,A*6A
$GNVTG,,T,,M,0.211,N,0.391,K,A*34
$GNGGA,084003.00,5939.93235,N,01046.68052,E,1,09,1.49,85.6,M,38.7,M,,*7D
$GNGSA,A,3,02,17,22,03,32,21,,,,,,,3.13,1.49,2.75*14
$GNGSA,A,3,86,85,69,,,,,,,,,,3.13,1.49,2.75*1D
$GPGSV,2,1,08,02,76,173,25,03,45,236,15,17,36,304,27,19,15,321,07*78
$GPGSV,2,2,08,21,60,141,27,22,20,289,19,24,00,354,,32,37,058,19*78
$GLGSV,2,1,07,69,49,049,28,76,06,290,,77,20,332,,78,12,031,*66
$GLGSV,2,2,07,84,26,135,,85,82,171,29,86,38,309,26*5D
$GNGLL,5939.93235,N,01046.68052,E,084003.00,A,A*7A
$GNRMC,084004.00,A,5939.93240,N,01046.68039,E,0.159,,270824,,,A*6D
$GNVTG,,T,,M,0.159,N,0.295,K,A*3E
$GNGGA,084004.00,5939.93240,N,01046.68039,E,1,09,1.49,86.3,M,38.7,M,,*73
$GNGSA,A,3,02,17,22,03,32,21,,,,,,,3.13,1.49,2.75*14
$GNGSA,A,3,86,85,69,,,,,,,,,,3.13,1.49,2.75*1D
$GPGSV,2,1,08,02,76,173,25,03,45,236,15,17,36,304,27,19,15,321,07*78
$GPGSV,2,2,08,21,60,141,28,22,20,289,19,24,00,354,,32,37,058,19*77
$GLGSV,2,1,07,69,49,049,28,76,06,290,,77,20,332,,78,12,031,*66
$GLGSV,2,2,07,84,26,135,,85,82,171,30,86,38,309,26*55
$GNGLL,5939.93240,N,01046.68039,E,084004.00,A,A*72
$GNRMC,084005.00,A,5939.93241,N,01046.68041,E,0.076,,270824,,,A*6E
$GNVTG,,T,,M,0.076,N,0.140,K,A*39
$GNGGA,084005.00,5939.93241,N,01046.68041,E,1,09,1.49,86.6,M,38.7,M,,*79
$GNGSA,A,3,02,17,22,03,32,21,,,,,,,3.13,1.49,2.75*14
$GNGSA,A,3,86,85,69,,,,,,,,,,3.13,1.49,2.75*1D
$GPGSV,2,1,08,02,76,173,25,03,45,236,14,17,36,304,28,19,15,321,07*76
$GPGSV,2,2,08,21,60,141,28,22,20,289,20,24,00,354,,32,37,058,19*7D
$GLGSV,2,1,07,69,49,049,28,76,06,290,,77,20,332,,78,12,031,*66
$GLGSV,2,2,07,84,26,135,,85,82,171,31,86,38,309,26*54
$GNGLL,5939.93241,N,01046.68041,E,084005.00,A,A*7D
$GNRMC,084006.00,A,5939.93242,N,01046.68057,E,0.162,,270824,,,A*6D
$GNVTG,,T,,M,0.162,N,0.300,K,A*3B
$GNGGA,084006.00,5939.93242,N,01046.68057,E,1,10,1.49,86.6,M,38.7,M,,*76
$GNGSA,A,3,02,17,22,03,32,19,21,,,,,,2.97,1.49,2.57*11
$GNGSA,A,3,86,85,69,,,,,,,,,,2.97,1.49,2.57*10
$GPGSV,2,1,08,02,76,173,25,03,45,236,14,17,36,304,27,19,15,321,07*79
$GPGSV,2,2,08,21,60,141,28,22,20,289,21,24,00,354,,32,37,058,18*7D
$GLGSV,2,1,07,69,49,049,28,76,06,290,,77,20,332,,78,12,031,*66
$GLGSV,2,2,07,84,26,135,,85,82,171,30,86,38,309,25*56
$GNGLL,5939.93242,N,01046.68057,E,084006.00,A,A*7A
$GNRMC,084007.00,A,5939.93238,N,01046.68067,E,0.096,,270824,,,A*68
$GNVTG,,T,,M,0.096,N,0.178,K,A*3C
$GNGGA,084007.00,5939.93238,N,01046.68067,E,1,09,1.49,86.9,M,38.7,M,,*7E
$GNGSA,A,3,02,17,22,03,32,21,,,,,,,3.13,1.49,2.75*14
$GNGSA,A,3,86,85,69,,,,,,,,,,3.13,1.49,2.75*1D
$GPGSV,2,1,08,02,76,173,24,03,45,236,08,17,36,304,27,19,15,321,07*75
$GPGSV,2,2,08,21,60,141,28,22,20,289,21,24,00,354,,32,37,058,18*7D
$GLGSV,2,1,07,69,49,049,28,76,06,290,,77,20,332,,78,12,031,*66
$GLGSV,2,2,07,84,26,135,,85,82,171,30,86,38,309,25*56
$GNGLL,5939.93238,N,01046.68067,E,084007.00,A,A*75
$GNRMC,084008.00,A,5939.93237,N,01046.68080,E,0.178,,270824,,,A*60
$GNVTG,,T,,M,0.178,N,0.330,K,A*33
$GNGGA,084008.00,5939.93237,N,01046.68080,E,1,10,1.49,87.2,M,38.7,M,,*75
$GNGSA,A,3,02,17,22,03,32,19,21,,,,,,2.97,1.49,2.57*11
$GNGSA,A,3,86,85,69,,,,,,,,,,2.97,1.49,2.57*10
$GPGSV,2,1,08,02,76,173,24,03,45,236,12,17,36,304,26,19,15,321,10*79
$GPGSV,2,2,08,21,60,141,27,22,20,289,21,24,00,354,,32,37,058,19*73
$GLGSV,2,1,07,69,49,049,28,76,06,290,,77,20,332,,78,12,031,*66
$GLGSV,2,2,07,84,26,135,,85,82,171,30,86,38,309,25*56
$GNGLL,5939.93237,N,01046.68080,E,084008.00,A,A*7C
$GNRMC,084009.00,A,5939.93249,N,01046.68075,E,0.084,,270824,,,A*60
$GNVTG,,T,,M,0.084,N,0.156,K,A*33
$GNGGA,084009.00,5939.93249,N,01046.68075,E,1,09,1.49,87.6,M,38.7,M,,*7B
$GNGSA,A,3,02,17,22,03,32,21,,,,,,,3.13,1.49,2.75*14
$GNGSA,A,3,86,85,69,,,,,,,,,,3.13,1.49,2.75*1D
$GPGSV,2,1,08,02,76,173,24,03,45,236,12,17,36,304,26,19,15,321,10*79
$GPGSV,2,2,08,21,60,141,27,22,20,289,22,24,00,354,,32,37,058,19*70
$GLGSV,2,1,07,69,49,049,27,76,06,290,,77,20,332,,78,12,031,*69
$GLGSV,2,2,07,84,26,135,,85,82,171,31,86,38,309,25*57
$GNGLL,5939.93249,N,01046.68075,E,084009.00,A,A*7E
$GNRMC,084010.00,A,5939.93249,N,01046.68076,E,0.055,,270824,,,A*67
$GNVTG,,T,,M,0.055,N,0.102,K,A*3E
$GNGGA,084010.00,5939.93249,N,01046.68076,E,1,09,1.49,87.9,M,38.7,M,,*7F
$GNGSA,A,3,02,17,22,03,32,21,,,,,,,3.13,1.49,2.75*14
$GNGSA,A,3,86,85,69,,,,,,,,,,3.13,1.49,2.75*1D
$GPGSV,2,1,08,02,76,173,23,03,45,236,12,17,36,304,26,19,15,321,10*7E
$GPGSV,2,2,08,21,60,141,27,22,20,289,22,24,00,354,,32,37,058,20*7A
$GLGSV,2,1,07,69,49,049,25,76,06,290,,77,20,332,,78,13,030,*6B
$GLGSV,2,2,07,84,26,135,,85,82,171,30,86,38,309,25*56
$GNGLL,5939.93249,N,01046.68076,E,084010.00,A,A*75
$GNRMC,084011.00,A,5939.93260,N,01046.68086,E,0.181,,270824,,,A*6A
$GNVTG,,T,,M,0.181,N,0.335,K,A*30
$GNGGA,084011.00,5939.93260,N,01046.68086,E,1,09,1.49,88.1,M,38.7,M,,*7D
$GNGSA,A,3,02,17,22,03,32,21,,,,,,,3.13,1.49,2.75*14
$GNGSA,A,3,86,85,69,,,,,,,,,,3.13,1.49,2.75*1D
$GPGSV,2,1,08,02,76,173,23,03,45,236,12,17,36,304,26,19,15,321,10*7E
$GPGSV,2,2,08,21,60,141,27,22,20,289,22,24,00,354,,32,37,058,20*7A
$GLGSV,2,1,07,69,49,049,23,76,06,290,,77,20,332,,78,13,030,*6D
$GLGSV,2,2,07,84,26,135,,85,82,171,23,86,38,309,24*55
$GNGLL,5939.93260,N,01046.68086,E,084011.00,A,A*70
$GNRMC,084012.00,A,5939.93286,N,01046.68092,E,0.184,,270824,,,A*61
$GNVTG,,T,,M,0.184,N,0.340,K,A*37
$GNGGA,084012.00,5939.93286,N,01046.68092,E,1,10,1.49,88.4,M,38.7,M,,*7E
$GNGSA,A,3,02,17,22,03,32,19,21,,,,,,2.97,1.49,2.57*11
$GNGSA,A,3,86,85,69,,,,,,,,,,2.97,1.49,2.57*10
$GPGSV,2,1,08,02,76,173,25,03,45,236,11,17,36,304,26,19,15,321,09*73
$GPGSV,2,2,08,21,60,141,27,22,20,289,21,24,00,354,,32,37,058,21*78
$GLGSV,2,1,07,69,49,049,23,76,06,290,,77,20,332,,78,13,030,*6D
$GLGSV,2,2,07,84,26,135,,85,82,171,31,86,38,309,25*57
$GNGLL,5939.93286,N,01046.68092,E,084012.00,A,A*7E
$GNRMC,084013.00,A,5939.93290,N,01046.68101,E,0.177,,270824,,,A*60
$GNVTG,,T,,M,0.177,N,0.328,K,A*35
$GNGGA,084013.00,5939.93290,N,01046.68101,E,1,10,1.49,88.4,M,38.7,M,,*73
$GNGSA,A,3,02,17,22,03,32,19,21,,,,,,2.97,1.49,2.57*11
$GNGSA,A,3,86,85,69,,,,,,,,,,2.97,1.49,2.57*10
$GPGSV,2,1,08,02,76,173,26,03,45,236,11,17,36,304,25,19,15,321,13*78
$GPGSV,2,2,08,21,60,141,28,22,20,289,21,24,00,354,,32,37,058,21*77
$GLGSV,2,1,07,69,49,049,24,76,06,290,,77,20,332,,78,13,030,*6A
$GLGSV,2,2,07,84,26,135,,85,82,171,30,86,38,309,26*55
$GNGLL,5939.93290,N,01046.68101,E,084013.00,A,A*73
$GNRMC,084014.00,A,5939.93300,N,01046.68112,E,0.192,,270824,,,A*66
$GNVTG,,T,,M,0.192,N,0.355,K,A*34
$GNGGA,084014.00,5939.93300,N,01046.68112,E,1,10,1.49,88.9,M,38.7,M,,*73
$GNGSA,A,3,02,17,22,03,32,19,21,,,,,,2.97,1.49,2.57*11
$GNGSA,A,3,86,85,69,,,,,,,,,,2.97,1.49,2.57*10
$GPGSV,2,1,08,02,76,173,27,03,45,236,13,17,36,304,25,19,15,321,08*71
$GPGSV,2,2,08,21,60,141,28,22,20,289,22,24,00,354,17,32,37,058,22*71
$GLGSV,2,1,07,69,49,049,24,76,06,290,,77,20,332,,78,13,030,*6A
$GLGSV,2,2,07,84,26,135,,85,82,171,30,86,38,309,24*57
$GNGLL,5939.93300,N,01046.68112,E,084014.00,A,A*7E
$GNRMC,084015.00,A,5939.93317,N,01046.68125,E,0.150,,270824,,,A*6B
$GNVTG,,T,,M,0.150,N,0.278,K,A*34
$GNGGA,084015.00,5939.93317,N,01046.68125,E,1,10,1.49,89.9,M,38.7,M,,*71
$GNGSA,A,3,02,17,22,03,32,19,21,,,,,,2.97,1.49,2.57*11
$GNGSA,A,3,86,85,69,,,,,,,,,,2.97,1.49,2.57*10
$GPGSV,2,1,08,02,76,173,27,03,45,236,09,17,36,304,26,19,15,321,11*71
$GPGSV,2,2,08,21,60,141,29,22,20,289,22,24,00,354,16,32,37,058,22*71
$GLGSV,2,1,07,69,49,049,25,76,06,290,,77,20,332,,78,13,030,*6B
$GLGSV,2,2,07,84,26,135,,85,82,171,30,86,38,309,24*57
$GNGLL,5939.93317,N,01046.68125,E,084015.00,A,A*7D
$GNRMC,084016.00,A,5939.93336,N,01046.68151,E,0.367,,270824,,,A*6E
$GNVTG,,T,,M,0.367,N,0.680,K,A*31
$GNGGA,084016.00,5939.93336,N,01046.68151,E,1,10,1.49,90.5,M,38.7,M,,*76
$GNGSA,A,3,02,17,22,03,32,19,21,,,,,,2.97,1.49,2.57*11
$GNGSA,A,3,86,85,69,,,,,,,,,,2.97,1.49,2.57*10
$GPGSV,2,1,08,02,76,173,26,03,45,236,11,17,36,304,24,19,15,321,10*7A
$GPGSV,2,2,08,21,60,141,28,22,20,289,20,24,00,354,10,32,37,058,19*7C
$GLGSV,2,1,07,69,49,049,24,76,06,290,,77,20,332,,78,13,030,*6A
$GLGSV,2,2,07,84,25,136,,85,82,171,29,86,38,309,22*59
$GNGLL,5939.93336,N,01046.68151,E,084016.00,A,A*7E
$GNRMC,084017.00,A,5939.93326,N,01046.68132,E,0.010,,270824,,,A*68
$GNVTG,,T,,M,0.010,N,0.019,K,A*34
$GNGGA,084017.00,5939.93326,N,01046.68132,E,1,09,1.74,90.5,M,38.7,M,,*75
$GNGSA,A,3,02,17,22,32,19,21,,,,,,,3.22,1.74,2.71*17
$GNGSA,A,3,86,85,69,,,,,,,,,,3.22,1.74,2.71*15
$GPGSV,2,1,08,02,76,173,26,03,45,236,07,17,36,304,23,19,15,321,09*72
$GPGSV,2,2,08,21,60,141,28,22,20,289,18,24,00,354,08,32,37,058,16*71
$GLGSV,2,1,07,69,49,049,21,76,06,290,,77,20,332,,78,13,030,*6F
$GLGSV,2,2,07,84,25,136,,85,81,170,28,86,38,309,20*58
$GNGLL,5939.93326,N,01046.68132,E,084017.00,A,A*7B
$GNRMC,084018.00,A,5939.93375,N,01046.68172,E,0.479,,270824,,,A*6E
$GNVTG,,T,,M,0.479,N,0.888,K,A*3F
$GNGGA,084018.00,5939.93375,N,01046.68172,E,1,09,1.49,91.1,M,38.7,M,,*73
$GNGSA,A,3,02,17,22,03,32,21,,,,,,,3.13,1.49,2.75*14
$GNGSA,A,3,86,85,69,,,,,,,,,,3.13,1.49,2.75*1D
$GPGSV,2,1,08,02,76,173,27,03,45,236,09,17,36,304,23,19,15,321,06*72
$GPGSV,2,2,08,21,60,141,29,22,20,289,17,24,00,354,08,32,37,058,12*7B
$GLGSV,2,1,07,69,49,049,21,76,06,290,,77,20,332,,78,13,030,*6F
$GLGSV,2,2,07,84,25,136,,85,81,170,28,86,38,309,19*52
$GNGLL,5939.93375,N,01046.68172,E,084018.00,A,A*76
$GNRMC,084019.00,A,5939.93398,N,01046.68207,E,0.634,,270824,,,A*66
$GNVTG,,T,,M,0.634,N,1.173,K,A*38
$GNGGA,084019.00,5939.93398,N,01046.68207,E,1,10,1.49,91.4,M,38.7,M,,*7D
$GNGSA,A,3,02,17,22,03,32,19,21,,,,,,2.97,1.49,2.57*11
$GNGSA,A,3,86,85,69,,,,,,,,,,2.97,1.49,2.57*10
$GPGSV,2,1,08,02,76,173,27,03,45,236,11,17,36,304,24,19,15,321,08*72
$GPGSV,2,2,08,21,60,141,29,22,20,289,17,24,00,354,08,32,37,058,08*70
$GLGSV,2,1,07,69,49,049,20,76,06,290,,77,20,332,,78,13,030,*6E
$GLGSV,2,2,07,84,25,136,,85,81,170,28,86,38,309,20*58
$GNGLL,5939.93398,N,01046.68207,E,084019.00,A,A*75
$GNRMC,084020.00,A,5939.93405,N,01046.68217,E,0.534,,270824,,,A*6D
$GNVTG,,T,,M,0.534,N,0.990,K,A*3F
$GNGGA,084020.00,5939.93405,N,01046.68217,E,1,10,1.49,91.6,M,38.7,M,,*77
$GNGSA,A,3,02,17,22,03,32,19,21,,,,,,2.97,1.49,2.57*11
$GNGSA,A,3,86,85,69,,,,,,,,,,2.97,1.49,2.57*10
$GPGSV,2,1,08,02,76,173,26,03,45,236,11,17,36,304,24,19,15,321,10*7A
$GPGSV,2,2,08,21,60,141,29,22,20,289,17,24,00,354,08,32,37,058,12*7B
$GLGSV,2,1,07,69,49,049,21,76,06,290,,77,20,332,,78,13,030,*6F
$GLGSV,2,2,07,84,25,136,,85,81,170,27,86,38,309,21*56
$GNGLL,5939.93405,N,01046.68217,E,084020.00,A,A*7D
$GNRMC,084021.00,A,5939.93415,N,01046.68246,E,0.554,,270824,,,A*6F
$GNVTG,,T,,M,0.554,N,1.027,K,A*3D
$GNGGA,084021.00,5939.93415,N,01046.68246,E,1,10,1.49,91.7,M,38.7,M,,*72
$GNGSA,A,3,02,17,22,03,32,19,21,,,,,,2.97,1.49,2.57*11
$GNGSA,A,3,86,85,69,,,,,,,,,,2.97,1.49,2.57*10
$GPGSV,2,1,08,02,76,172,27,03,45,236,12,17,36,304,24,19,15,321,10*79
$GPGSV,2,2,08,21,60,141,29,22,20,289,18,24,00,354,07,32,37,058,11*78
$GLGSV,2,1,07,69,49,049,21,76,06,290,,77,20,332,,78,13,030,*6F
$GLGSV,2,2,07,84,25,136,,85,81,170,28,86,38,309,21*59
$GNGLL,5939.93415,N,01046.68246,E,084021.00,A,A*79
$GNRMC,084022.00,A,5939.93405,N,01046.68250,E,0.449,,270824,,,A*67
$GNVTG,,T,,M,0.449,N,0.831,K,A*3E
$GNGGA,084022.00,5939.93405,N,01046.68250,E,1,10,1.49,91.8,M,38.7,M,,*78
$GNGSA,A,3,02,17,22,03,32,19,21,,,,,,2.97,1.49,2.57*11
$GNGSA,A,3,86,85,69,,,,,,,,,,2.97,1.49,2.57*10
$GPGSV,2,1,08,02,76,172,27,03,45,237,11,17,36,304,24,19,15,321,10*7B
$GPGSV,2,2,08,21,60,141,29,22,20,289,18,24,00,354,08,32,37,058,12*74
$GLGSV,2,1,07,69,49,049,21,76,06,290,,77,20,332,,78,13,030,*6F
$GLGSV,2,2,07,84,25,136,,85,81,170,28,86,38,309,21*59
$GNGLL,5939.93405,N,01046.68250,E,084022.00,A,A*7C
$GNRMC,084023.00,A,5939.93394,N,01046.68238,E,0.294,,270824,,,A*61
$GNVTG,,T,,M,0.294,N,0.544,K,A*37
$GNGGA,084023.00,5939.93394,N,01046.68238,E,1,09,1.69,92.1,M,38.7,M,,*78
$GNGSA,A,3,02,17,22,03,32,19,21,,,,,,3.33,1.69,2.87*11
$GNGSA,A,3,85,69,,,,,,,,,,,3.33,1.69,2.87*1E
$GPGSV,2,1,08,02,76,172,27,03,45,237,10,17,36,304,25,19,15,321,10*7B
$GPGSV,2,2,08,21,60,141,29,22,20,289,18,24,00,354,08,32,37,058,10*76
$GLGSV,2,1,07,69,49,049,21,76,06,290,,77,20,332,,78,13,030,*6F
$GLGSV,2,2,07,84,25,136,,85,81,170,28,86,38,309,*5A
$GNGLL,5939.93394,N,01046.68238,E,084023.00,A,A*7C
$GNRMC,084024.00,A,5939.93353,N,01046.68126,E,0.552,,270824,,,A*6C
$GNVTG,,T,,M,0.552,N,1.023,K,A*3F
$GNGGA,084024.00,5939.93353,N,01046.68126,E,1,08,1.94,91.9,M,38.7,M,,*70
$GNGSA,A,3,02,17,22,32,19,21,,,,,,,3.59,1.94,3.03*11
$GNGSA,A,3,85,69,,,,,,,,,,,3.59,1.94,3.03*1D
$GPGSV,2,1,08,02,76,172,27,03,45,237,07,17,36,304,24,19,15,321,09*74
$GPGSV,2,2,08,21,60,141,28,22,20,289,16,24,00,354,07,32,37,058,11*77
$GLGSV,2,1,07,69,49,049,20,76,06,290,,77,20,332,,78,13,030,*6E
$GLGSV,2,2,07,84,25,136,,85,81,170,27,86,38,309,*55
$GNGLL,5939.93353,N,01046.68126,E,084024.00,A,A*7C
$GNRMC,084025.00,A,5939.93361,N,01046.68152,E,0.146,,270824,,,A*6E
$GNVTG,,T,,M,0.146,N,0.270,K,A*3B
$GNGGA,084025.00,5939.93361,N,01046.68152,E,1,09,1.69,91.9,M,38.7,M,,*70
$GNGSA,A,3,02,17,22,03,32,19,21,,,,,,3.34,1.69,2.87*16
$GNGSA,A,3,85,69,,,,,,,,,,,3.34,1.69,2.87*19
$GPGSV,2,1,08,02,76,172,28,03,45,237,10,17,36,304,25,19,15,321,12*76
$GPGSV,2,2,08,21,60,141,30,22,20,289,17,24,00,354,08,32,37,058,11*70
$GLGSV,2,1,07,69,49,049,22,76,06,290,,77,20,332,,78,13,030,*6C
$GLGSV,2,2,07,84,25,136,,85,81,170,28,86,38,309,*5A
$GNGLL,5939.93361,N,01046.68152,E,084025.00,A,A*7F
$GNRMC,084026.00,A,5939.93371,N,01046.68190,E,0.310,,270824,,,A*63
$GNVTG,,T,,M,0.310,N,0.574,K,A*39
$GNGGA,084026.00,5939.93371,N,01046.68190,E,1,09,1.69,92.0,M,38.7,M,,*76
$GNGSA,A,3,02,17,22,03,32,19,21,,,,,,3.34,1.69,2.88*19
$GNGSA,A,3,85,69,,,,,,,,,,,3.34,1.69,2.88*16
$GPGSV,2,1,08,02,76,172,29,03,45,237,17,17,36,304,26,19,15,321,08*78
$GPGSV,2,2,08,21,60,141,30,22,20,289,19,24,00,354,,32,37,058,10*77
$GLGSV,2,1,07,69,49,049,21,76,06,290,,77,20,332,,78,13,030,*6F
$GLGSV,2,2,07,84,25,136,,85,81,170,28,86,38,309,*5A
$GNGLL,5939.93371,N,01046.68190,E,084026.00,A,A*73
$GNRMC,084027.00,A,5939.93369,N,01046.68182,E,0.310,,270824,,,A*68
$GNVTG,,T,,M,0.310,N,0.574,K,A*39
$GNGGA,084027.00,5939.93369,N,01046.68182,E,1,09,1.69,92.7,M,38.7,M,,*7A
$GNGSA,A,3,02,17,22,03,32,19,21,,,,,,3.34,1.69,2.88*19
$GNGSA,A,3,85,69,,,,,,,,,,,3.34,1.69,2.88*16
$GPGSV,2,1,08,02,76,172,29,03,45,237,13,17,36,304,25,19,15,321,11*77
$GPGSV,2,2,08,21,60,141,31,22,20,289,19,24,00,354,,32,37,058,19*7F
$GLGSV,2,1,08,68,03,034,,69,49,049,22,76,06,290,,77,20,332,*67
$GLGSV,2,2,08,78,13,030,,84,25,136,,85,81,170,29,86,38,309,*6A
$GNGLL,5939.93369,N,01046.68182,E,084027.00,A,A*78
$GNRMC,084028.00,A,5939.93370,N,01046.68223,E,0.680,,270824,,,A*6B
$GNVTG,,T,,M,0.680,N,1.259,K,A*3C
$GNGGA,084028.00,5939.93370,N,01046.68223,E,1,09,1.69,93.3,M,38.7,M,,*70
$GNGSA,A,3,02,17,22,03,32,19,21,,,,,,3.34,1.69,2.88*19
$GNGSA,A,3,85,69,,,,,,,,,,,3.34,1.69,2.88*16
$GPGSV,2,1,08,02,76,172,28,03,45,237,14,17,36,304,23,19,15,321,09*7E
$GPGSV,2,2,08,21,60,141,31,22,20,289,19,24,00,354,,32,37,058,15*73
$GLGSV,2,1,08,68,03,034,,69,49,049,22,76,06,290,,77,20,332,*67
$GLGSV,2,2,08,78,13,030,,84,25,136,,85,81,170,29,86,38,309,*6A
$GNGLL,5939.93370,N,01046.68223,E,084028.00,A,A*77
$GNRMC,084029.00,A,5939.93374,N,01046.68229,E,0.411,,270824,,,A*6E
$GNVTG,,T,,M,0.411,N,0.762,K,A*3A
$GNGGA,084029.00,5939.93374,N,01046.68229,E,1,09,1.69,93.0,M,38.7,M,,*7C
$GNGSA,A,3,02,17,22,03,32,19,21,,,,,,3.34,1.69,2.88*19
$GNGSA,A,3,85,69,,,,,,,,,,,3.34,1.69,2.88*16
$GPGSV,2,1,08,02,76,172,28,03,45,237,10,17,36,304,23,19,15,321,10*72
$GPGSV,2,2,08,21,60,141,32,22,20,289,18,24,00,353,,32,37,058,18*7B
$GLGSV,2,1,08,68,03,034,,69,49,049,22,76,06,290,,77,20,332,*67
$GLGSV,2,2,08,78,13,030,,84,25,136,,85,81,170,29,86,38,309,*6A
$GNGLL,5939.93374,N,01046.68229,E,084029.00,A,A*78
$GNRMC,084030.00,A,5939.93382,N,01046.68237,E,0.276,,270824,,,A*67
$GNVTG,,T,,M,0.276,N,0.511,K,A*3B
$GNGGA,084030.00,5939.93382,N,01046.68237,E,1,09,1.69,93.6,M,38.7,M,,*74
$GNGSA,A,3,02,17,22,03,32,19,21,,,,,,3.34,1.69,2.88*19
$GNGSA,A,3,85,69,,,,,,,,,,,3.34,1.69,2.88*16
$GPGSV,2,1,08,02,76,172,28,03,45,237,14,17,36,304,22,19,15,321,09*7F
$GPGSV,2,2,08,21,60,141,32,22,20,289,17,24,00,353,,32,37,058,17*7B
$GLGSV,2,1,08,68,03,034,,69,49,049,23,76,06,290,,77,20,332,*66
$GLGSV,2,2,08,78,13,030,,84,25,136,,85,81,170,29,86,38,309,*6A
$GNGLL,5939.93382,N,01046.68237,E,084030.00,A,A*76
$GNRMC,084031.00,A,5939.93393,N,01046.68255,E,0.352,,270824,,,A*65
$GNVTG,,T,,M,0.352,N,0.653,K,A*39
$GNGGA,084031.00,5939.93393,N,01046.68255,E,1,09,1.69,93.5,M,38.7,M,,*72
$GNGSA,A,3,02,17,22,03,32,19,21,,,,,,3.34,1.69,2.88*19
$GNGSA,A,3,85,69,,,,,,,,,,,3.34,1.69,2.88*16
$GPGSV,2,1,08,02,76,172,28,03,45,237,13,17,36,304,22,19,15,321,13*73
$GPGSV,2,2,08,21,60,141,31,22,20,289,18,24,00,353,,32,37,058,15*75
$GLGSV,2,1,08,68,03,034,,69,49,049,23,76,06,290,,77,20,332,*66
$GLGSV,2,2,08,78,13,030,,84,25,136,,85,81,170,28,86,38,309,*6B
$GNGLL,5939.93393,N,01046.68255,E,084031.00,A,A*73
$GNRMC,084032.00,A,5939.93380,N,01046.68233,E,0.201,,270824,,,A*63
$GNVTG,,T,,M,0.201,N,0.372,K,A*38
$GNGGA,084032.00,5939.93380,N,01046.68233,E,1,09,1.69,93.5,M,38.7,M,,*73
$GNGSA,A,3,02,17,22,03,32,19,21,,,,,,3.34,1.69,2.88*19
$GNGSA,A,3,85,69,,,,,,,,,,,3.34,1.69,2.88*16
$GPGSV,2,1,08,02,76,172,29,03,45,237,10,17,36,304,23,19,15,321,12*71
$GPGSV,2,2,08,21,60,141,31,22,20,289,19,24,00,353,,32,37,058,14*75
$GLGSV,2,1,08,68,03,034,,69,49,049,23,76,06,290,,77,20,332,*66
$GLGSV,2,2,08,78,13,030,,84,25,136,,85,81,170,28,86,38,309,*6B
$GNGLL,5939.93380,N,01046.68233,E,084032.00,A,A*72
$GNRMC,084033.00,A,5939.93327,N,01046.68139,E,0.611,,270824,,,A*63
$GNVTG,,T,,M,0.611,N,1.131,K,A*39
$GNGGA,084033.00,5939.93327,N,01046.68139,E,1,09,1.69,93.4,M,38.7,M,,*77
$GNGSA,A,3,02,17,22,03,32,19,21,,,,,,3.34,1.69,2.88*19
$GNGSA,A,3,85,69,,,,,,,,,,,3.34,1.69,2.88*16
$GPGSV,2,1,08,02,76,172,29,03,45,237,10,17,36,304,22,19,15,321,12*70
$GPGSV,2,2,08,21,60,141,30,22,20,289,19,24,00,353,,32,37,058,13*73
$GLGSV,2,1,08,68,03,034,,69,49,049,23,76,06,290,,77,20,332,*66
$GLGSV,2,2,08,78,13,030,,84,25,136,,85,81,170,28,86,38,309,*6B
$GNGLL,5939.93327,N,01046.68139,E,084033.00,A,A*77
$GNRMC,084034.00,A,5939.93313,N,01046.68119,E,0.521,,270824,,,A*61
$GNVTG,,T,,M,0.521,N,0.965,K,A*31
$GNGGA,084034.00,5939.93313,N,01046.68119,E,1,09,1.69,93.3,M,38.7,M,,*72
$GNGSA,A,3,02,17,22,03,32,19,21,,,,,,3.34,1.69,2.88*19
$GNGSA,A,3,85,69,,,,,,,,,,,3.34,1.69,2.88*16
$GPGSV,2,1,08,02,76,172,29,03,45,237,10,17,36,304,22,19,15,321,12*70
$GPGSV,2,2,08,21,60,141,30,22,20,289,19,24,00,353,,32,37,058,13*73
$GLGSV,2,1,08,68,03,034,,69,49,049,23,76,06,290,,77,20,332,*66
$GLGSV,2,2,08,78,13,030,,84,25,136,,85,81,170,27,86,38,309,*64
$GNGLL,5939.93313,N,01046.68119,E,084034.00,A,A*75
$GNRMC,084035.00,A,5939.93307,N,01046.68079,E,0.534,,270824,,,A*66
$GNVTG,,T,,M,0.534,N,0.989,K,A*37
$GNGGA,084035.00,5939.93307,N,01046.68079,E,1,09,1.69,93.1,M,38.7,M,,*73
$GNGSA,A,3,02,17,22,03,32,19,21,,,,,,3.34,1.69,2.88*19
$GNGSA,A,3,85,69,,,,,,,,,,,3.34,1.69,2.88*16
$GPGSV,2,1,08,02,76,172,29,03,45,237,10,17,36,304,23,19,15,321,12*71
$GPGSV,2,2,08,21,60,141,31,22,20,289,19,24,00,353,,32,37,058,13*72
$GLGSV,2,1,08,68,03,034,,69,49,049,23,76,06,290,,77,20,332,*66
$GLGSV,2,2,08,78,13,030,,84,25,136,,85,81,170,28,86,38,309,*6B
$GNGLL,5939.93307,N,01046.68079,E,084035.00,A,A*76
$GNRMC,084036.00,A,5939.93324,N,01046.68083,E,0.157,,270824,,,A*60
$GNVTG,,T,,M,0.157,N,0.291,K,A*34
$GNGGA,084036.00,5939.93324,N,01046.68083,E,1,09,1.69,93.7,M,38.7,M,,*72
$GNGSA,A,3,02,17,22,03,32,19,21,,,,,,3.34,1.69,2.88*19
$GNGSA,A,3,85,69,,,,,,,,,,,3.34,1.69,2.88*16
$GPGSV,2,1,08,02,76,172,28,03,45,237,10,17,36,304,23,19,15,321,12*70
$GPGSV,2,2,08,21,60,141,31,22,20,289,19,24,00,353,,32,37,058,15*74
$GLGSV,2,1,08,68,03,034,,69,49,049,23,76,06,290,,77,20,332,*66
$GLGSV,2,2,08,78,13,030,,84,25,136,,85,81,170,31,86,38,309,*63
$GNGLL,5939.93324,N,01046.68083,E,084036.00,A,A*71
$GNRMC,084037.00,A,5939.93272,N,01046.68033,E,0.767,,270824,,,A*6D
$GNVTG,,T,,M,0.767,N,1.421,K,A*3D
$GNGGA,084037.00,5939.93272,N,01046.68033,E,1,09,1.69,94.1,M,38.7,M,,*7B
$GNGSA,A,3,02,17,22,03,32,19,21,,,,,,3.34,1.69,2.88*19
$GNGSA,A,3,85,69,,,,,,,,,,,3.34,1.69,2.88*16
$GPGSV,2,1,08,02,76,172,28,03,45,237,15,17,36,304,23,19,15,321,11*76
$GPGSV,2,2,08,21,60,141,30,22,20,289,18,24,00,353,,32,37,058,16*77
$GLGSV,2,1,08,68,03,034,,69,49,049,22,76,06,290,,77,20,332,*67
$GLGSV,2,2,08,78,13,030,,84,25,136,,85,81,170,31,86,38,309,*63
$GNGLL,5939.93272,N,01046.68033,E,084037.00,A,A*79
$GNRMC,084038.00,A,5939.93262,N,01046.68025,E,0.595,,270824,,,A*6B
$GNVTG,,T,,M,0.595,N,1.103,K,A*37
$GNGGA,084038.00,5939.93262,N,01046.68025,E,1,09,1.69,94.4,M,38.7,M,,*77
$GNGSA,A,3,02,17,22,03,32,19,21,,,,,,3.34,1.69,2.88*19
$GNGSA,A,3,85,69,,,,,,,,,,,3.34,1.69,2.88*16
$GPGSV,2,1,08,02,76,172,27,03,45,237,13,17,36,304,23,19,15,321,10*7E
$GPGSV,2,2,08,21,60,141,30,22,20,289,18,24,00,353,,32,37,058,17*76
$GLGSV,2,1,08,68,03,034,,69,49,049,22,76,06,290,,77,20,332,*67
$GLGSV,2,2,08,78,13,030,,84,25,136,,85,81,170,31,86,38,309,*63
$GNGLL,5939.93262,N,01046.68025,E,084038.00,A,A*70
$GNRMC,084039.00,A,5939.93270,N,01046.68012,E,0.354,,270824,,,A*66
$GNVTG,,T,,M,0.354,N,0.655,K,A*39
$GNGGA,084039.00,5939.93270,N,01046.68012,E,1,08,1.71,94.3,M,38.7,M,,*7E
$GNGSA,A,3,02,17,22,03,32,21,,,,,,,3.42,1.71,2.96*16
$GNGSA,A,3,85,69,,,,,,,,,,,3.42,1.71,2.96*11
$GPGSV,2,1,08,02,76,172,28,03,45,237,13,17,36,304,22,19,15,321,10*70
$GPGSV,2,2,08,21,60,141,30,22,20,289,19,24,00,353,,32,37,058,20*73
$GLGSV,2,1,08,68,03,034,,69,49,049,21,76,06,290,,77,20,332,*64
$GLGSV,2,2,08,78,13,030,,84,25,136,,85,81,170,30,86,38,309,*62
$GNGLL,5939.93270,N,01046.68012,E,084039.00,A,A*76
$GNRMC,084040.00,A,5939.93283,N,01046.68038,E,0.117,,270824,,,A*69
$GNVTG,,T,,M,0.117,N,0.217,K,A*3E
$GNGGA,084040.00,5939.93283,N,01046.68038,E,1,08,1.71,94.7,M,38.7,M,,*70
$GNGSA,A,3,02,17,22,03,32,21,,,,,,,3.42,1.71,2.96*16
$GNGSA,A,3,85,69,,,,,,,,,,,3.42,1.71,2.96*11
$GPGSV,2,1,08,02,76,172,28,03,45,237,13,17,36,304,22,19,15,321,10*70
$GPGSV,2,2,08,21,60,141,30,22,20,289,20,24,00,353,,32,37,058,20*79
$GLGSV,2,1,08,68,03,034,,69,49,049,19,76,06,290,,77,20,332,*6F
$GLGSV,2,2,08,78,13,030,,84,25,136,,85,81,170,29,86,38,309,*6A
$GNGLL,5939.93283,N,01046.68038,E,084040.00,A,A*7C
$GNRMC,084041.00,A,5939.93294,N,01046.68038,E,0.117,,270824,,,A*6E
$GNVTG,,T,,M,0.117,N,0.216,K,A*3F
$GNGGA,084041.00,5939.93294,N,01046.68038,E,1,08,1.71,95.0,M,38.7,M,,*71
$GNGSA,A,3,02,17,22,03,32,21,,,,,,,3.42,1.71,2.96*16
$GNGSA,A,3,85,69,,,,,,,,,,,3.42,1.71,2.96*11
$GPGSV,2,1,08,02,76,172,28,03,45,237,13,17,36,304,22,19,15,321,10*70
$GPGSV,2,2,08,21,60,141,30,22,20,289,20,24,00,353,,32,37,058,19*73
$GLGSV,2,1,08,68,03,034,,69,49,049,18,76,06,290,,77,20,332,*6E
$GLGSV,2,2,08,78,13,030,,84,25,136,,85,81,170,28,86,38,309,*6B
$GNGLL,5939.93294,N,01046.68038,E,084041.00,A,A*7B
$GNRMC,084042.00,A,5939.93306,N,01046.68066,E,0.378,,270824,,,A*67
$GNVTG,,T,,M,0.378,N,0.699,K,A*37
$GNGGA,084042.00,5939.93306,N,01046.68066,E,1,08,1.71,95.3,M,38.7,M,,*70
$GNGSA,A,3,02,17,22,03,32,21,,,,,,,3.42,1.71,2.96*16
$GNGSA,A,3,85,69,,,,,,,,,,,3.42,1.71,2.96*11
$GPGSV,2,1,08,02,76,172,30,03,45,237,13,17,36,304,23,19,15,321,10*78
$GPGSV,2,2,08,21,60,141,29,22,20,289,21,24,00,353,,32,37,058,19*7A
$GLGSV,2,1,08,68,03,034,,69,49,049,18,76,06,290,,77,20,332,*6E
$GLGSV,2,2,08,78,13,030,,84,25,136,,85,81,170,28,86,38,309,*6B
$GNGLL,5939.93306,N,01046.68066,E,084042.00,A,A*79
$GNRMC,084043.00,A,5939.93292,N,01046.68047,E,0.136,,270824,,,A*61
$GNVTG,,T,,M,0.136,N,0.251,K,A*3F
$GNGGA,084043.00,5939.93292,N,01046.68047,E,1,08,1.71,95.8,M,38.7,M,,*75
$GNGSA,A,3,02,17,22,03,32,21,,,,,,,3.42,1.71,2.96*16
$GNGSA,A,3,85,69,,,,,,,,,,,3.42,1.71,2.96*11
$GPGSV,2,1,08,02,76,172,30,03,45,237,15,17,36,304,25,19,15,321,09*70
$GPGSV,2,2,08,21,60,141,28,22,20,289,22,24,00,353,,32,37,058,19*78
$GLGSV,2,1,08,68,03,034,,69,49,049,20,76,06,290,,77,20,332,*65
$GLGSV,2,2,08,78,13,030,,84,25,136,,85,81,170,28,86,38,309,*6B
$GNGLL,5939.93292,N,01046.68047,E,084043.00,A,A*77
$GNRMC,084044.00,A,5939.93308,N,01046.68067,E,0.397,,270824,,,A*6F
$GNVTG,,T,,M,0.397,N,0.736,K,A*32
$GNGGA,084044.00,5939.93308,N,01046.68067,E,1,08,1.71,95.9,M,38.7,M,,*73
$GNGSA,A,3,02,17,22,03,32,21,,,,,,,3.42,1.71,2.96*16
$GNGSA,A,3,85,69,,,,,,,,,,,3.42,1.71,2.96*11
$GPGSV,2,1,08,02,76,172,30,03,45,237,15,17,36,304,26,19,15,321,10*7B
$GPGSV,2,2,08,21,60,141,28,22,20,289,22,24,00,353,,32,37,058,18*79
$GLGSV,2,1,08,68,03,034,,69,49,049,22,76,06,290,,77,20,332,*67
$GLGSV,2,2,08,78,13,030,,84,25,136,,85,81,170,27,86,38,309,*64
$GNGLL,5939.93308,N,01046.68067,E,084044.00,A,A*70
$GNRMC,084045.00,A,5939.93323,N,01046.68073,E,0.551,,270824,,,A*6E
$GNVTG,,T,,M,0.551,N,1.020,K,A*3F
$GNGGA,084045.00,5939.93323,N,01046.68073,E,1,09,1.69,95.4,M,38.7,M,,*7B
$GNGSA,A,3,02,17,22,03,32,19,21,,,,,,3.34,1.69,2.88*19
$GNGSA,A,3,85,69,,,,,,,,,,,3.34,1.69,2.88*16
$GPGSV,2,1,08,02,76,172,29,03,45,237,08,17,36,304,24,19,15,321,09*75
$GPGSV,2,2,08,21,60,141,29,22,20,289,21,24,00,353,,32,37,058,18*7B
$GLGSV,3,1,09,68,03,034,,69,49,049,21,70,56,190,,76,06,290,*68
$GLGSV,3,2,09,77,20,332,,78,13,030,,84,25,136,,85,81,170,28*64
$GLGSV,3,3,09,86,38,309,*53
$GNGLL,5939.93323,N,01046.68073,E,084045.00,A,A*7D
$GNRMC,084046.00,A,5939.93331,N,01046.68039,E,0.542,,270824,,,A*62
$GNVTG,,T,,M,0.542,N,1.004,K,A*3B
$GNGGA,084046.00,5939.93331,N,01046.68039,E,1,09,1.69,95.5,M,38.7,M,,*74
$GNGSA,A,3,02,17,22,03,32,19,21,,,,,,3.34,1.69,2.88*19
$GNGSA,A,3,85,69,,,,,,,,,,,3.34,1.69,2.88*16
$GPGSV,2,1,08,02,76,172,28,03,45,237,10,17,36,304,23,19,15,321,10*72
$GPGSV,2,2,08,21,60,141,29,22,20,289,21,24,00,353,,32,37,058,16*75
$GLGSV,3,1,09,68,03,034,,69,49,049,21,70,56,190,,76,06,290,*68
$GLGSV,3,2,09,77,20,332,,78,13,030,,84,25,136,,85,81,170,27*6B
$GLGSV,3,3,09,86,38,309,*53
$GNGLL,5939.93331,N,01046.68039,E,084046.00,A,A*73
$GNRMC,084047.00,A,5939.93331,N,01046.68063,E,0.340,,270824,,,A*68
$GNVTG,,T,,M,0.340,N,0.629,K,A*37
$GNGGA,084047.00,5939.93331,N,01046.68063,E,1,09,1.69,96.1,M,38.7,M,,*7D
$GNGSA,A,3,02,17,22,03,32,19,21,,,,,,3.34,1.69,2.88*19
$GNGSA,A,3,85,69,,,,,,,,,,,3.34,1.69,2.88*16
$GPGSV,2,1,08,02,76,172,29,03,45,237,11,17,36,304,20,19,15,321,10*71
$GPGSV,2,2,08,21,60,141,31,22,20,289,21,24,00,353,,32,37,058,18*72
$GLGSV,3,1,09,68,03,034,,69,49,049,21,70,56,190,27,76,06,290,*6D
$GLGSV,3,2,09,77,20,332,,78,13,030,,84,25,136,,85,81,170,26*6A
$GLGSV,3,3,09,86,38,309,28*59
$GNGLL,5939.93331,N,01046.68063,E,084047.00,A,A*7D
$GNRMC,084048.00,A,5939.93318,N,01046.68085,E,0.450,,270824,,,A*62
$GNVTG,,T,,M,0.450,N,0.834,K,A*33
$GNGGA,084048.00,5939.93318,N,01046.68085,E,1,09,1.69,96.8,M,38.7,M,,*78
$GNGSA,A,3,02,17,22,03,32,19,21,,,,,,3.34,1.69,2.88*19
$GNGSA,A,3,85,69,,,,,,,,,,,3.34,1.69,2.88*16
$GPGSV,2,1,08,02,76,172,29,03,45,237,13,17,36,304,20,19,15,321,12*71
$GPGSV,2,2,08,21,60,141,30,22,20,289,21,24,00,353,,32,37,058,17*7C
$GLGSV,3,1,09,68,03,034,,69,49,049,21,70,56,190,,76,06,290,*68
$GLGSV,3,2,09,77,20,332,,78,13,030,,84,25,136,,85,81,170,26*6A
$GLGSV,3,3,09,86,38,309,*53
$GNGLL,5939.93318,N,01046.68085,E,084048.00,A,A*71
$GNRMC,084049.00,A,5939.93291,N,01046.68025,E,0.336,,270824,,,A*6E
$GNVTG,,T,,M,0.336,N,0.623,K,A*3C
$GNGGA,084049.00,5939.93291,N,01046.68025,E,1,09,1.69,96.8,M,38.7,M,,*73
$GNGSA,A,3,02,17,22,03,32,19,21,,,,,,3.34,1.69,2.88*19
$GNGSA,A,3,85,69,,,,,,,,,,,3.34,1.69,2.88*16
$GPGSV,2,1,08,02,76,172,29,03,45,237,14,17,36,304,19,19,15,321,12*7C
$GPGSV,2,2,08,21,60,141,30,22,20,289,21,24,00,353,,32,37,058,16*7D
$GLGSV,3,1,10,68,03,034,,69,49,049,20,70,56,190,19,71,09,206,*6E
$GLGSV,3,2,10,76,06,290,,77,20,332,,78,13,030,,84,25,136,*68
$GLGSV,3,3,10,85,81,170,26,86,38,309,*6D
$GNGLL,5939.93291,N,01046.68025,E,084049.00,A,A*7A
$GNRMC,084050.00,A,5939.93317,N,01046.68090,E,0.508,,270824,,,A*6C
$GNVTG,,T,,M,0.508,N,0.941,K,A*3C
$GNGGA,084050.00,5939.93317,N,01046.68090,E,1,09,1.69,97.2,M,38.7,M,,*71
$GNGSA,A,3,02,17,22,03,32,19,21,,,,,,3.34,1.69,2.88*19
$GNGSA,A,3,85,69,,,,,,,,,,,3.34,1.69,2.88*16
$GPGSV,2,1,08,02,76,172,29,03,45,237,11,17,36,304,19,19,15,321,08*72
$GPGSV,2,2,08,21,60,141,30,22,20,289,21,24,00,353,,32,37,058,17*7C
$GLGSV,3,1,10,68,03,034,,69,49,049,21,70,56,190,,71,09,206,*67
$GLGSV,3,2,10,76,06,290,,77,20,332,,78,13,030,,84,25,136,*68
$GLGSV,3,3,10,85,81,170,26,86,38,309,*6D
$GNGLL,5939.93317,N,01046.68090,E,084050.00,A,A*73
$GNRMC,084051.00,A,5939.93345,N,01046.68138,E,0.716,,270824,,,A*64
$GNVTG,,T,,M,0.716,N,1.327,K,A*3A
$GNGGA,084051.00,5939.93345,N,01046.68138,E,1,09,1.69,97.8,M,38.7,M,,*7E
$GNGSA,A,3,02,17,22,03,32,19,21,,,,,,3.34,1.69,2.88*19
$GNGSA,A,3,85,69,,,,,,,,,,,3.34,1.69,2.88*16
$GPGSV,2,1,08,02,76,172,29,03,45,237,14,17,36,304,20,19,15,321,11*75
$GPGSV,2,2,08,21,60,141,30,22,20,289,20,24,00,353,,32,37,058,18*72
$GLGSV,3,1,10,68,03,034,,69,49,049,20,70,56,190,,71,09,206,*66
$GLGSV,3,2,10,76,06,290,,77,20,332,,78,13,030,,84,25,136,*68
$GLGSV,3,3,10,85,81,170,26,86,38,309,*6D
$GNGLL,5939.93345,N,01046.68138,E,084051.00,A,A*76
$GNRMC,084052.00,A,5939.93335,N,01046.68155,E,0.654,,270824,,,A*6C
$GNVTG,,T,,M,0.654,N,1.210,K,A*38
$GNGGA,084052.00,5939.93335,N,01046.68155,E,1,09,1.69,98.4,M,38.7,M,,*72
$GNGSA,A,3,02,17,22,03,32,19,21,,,,,,3.34,1.69,2.88*19
$GNGSA,A,3,85,69,,,,,,,,,,,3.34,1.69,2.88*16
$GPGSV,2,1,08,02,76,172,29,03,45,237,17,17,36,304,19,19,15,321,09*75
$GPGSV,2,2,08,21,60,141,30,22,20,289,20,24,00,353,,32,37,058,19*73
$GLGSV,3,1,10,68,03,034,,69,49,049,19,70,56,190,,71,09,206,*6C
$GLGSV,3,2,10,76,06,290,,77,20,332,,78,13,030,,84,25,136,*68
$GLGSV,3,3,10,85,81,170,25,86,38,309,*6E
$GNGLL,5939.93335,N,01046.68155,E,084052.00,A,A*79
$GNRMC,084053.00,A,5939.93325,N,01046.68151,E,0.419,,270824,,,A*63
$GNVTG,,T,,M,0.419,N,0.777,K,A*36
$GNGGA,084053.00,5939.93325,N,01046.68151,E,1,09,1.69,98.9,M,38.7,M,,*7B
$GNGSA,A,3,02,17,22,03,32,19,21,,,,,,3.34,1.69,2.88*19
$GNGSA,A,3,85,69,,,,,,,,,,,3.34,1.69,2.88*16
$GPGSV,2,1,08,02,76,172,29,03,45,237,15,17,36,304,19,19,15,321,09*77
$GPGSV,2,2,08,21,60,141,30,22,20,289,20,24,00,353,,32,37,058,18*72
$GLGSV,3,1,10,68,03,034,,69,49,049,19,70,56,190,,71,09,206,*6C
$GLGSV,3,2,10,76,06,290,,77,20,332,,78,13,030,,84,25,136,*68
$GLGSV,3,3,10,85,81,170,24,86,38,309,*6F
$GNGLL,5939.93325,N,01046.68151,E,084053.00,A,A*7D
$GNRMC,084054.00,A,5939.93264,N,01046.68024,E,0.866,,270824,,,A*67
$GNVTG,,T,,M,0.866,N,1.604,K,A*36
$GNGGA,084054.00,5939.93264,N,01046.68024,E,1,08,1.92,99.6,M,38.7,M,,*70
$GNGSA,A,3,02,17,22,32,19,21,,,,,,,3.58,1.92,3.02*17
$GNGSA,A,3,85,69,,,,,,,,,,,3.58,1.92,3.02*1B
$GPGSV,2,1,08,02,76,172,30,03,45,237,10,17,36,304,19,19,15,321,09*7A
$GPGSV,2,2,08,21,60,141,29,22,20,289,20,24,00,353,,32,37,058,18*7A
$GLGSV,3,1,10,68,03,034,,69,49,049,21,70,56,190,,71,09,206,*67
$GLGSV,3,2,10,76,06,290,,77,20,332,,78,13,030,,84,25,136,*68
$GLGSV,3,3,10,85,81,170,23,86,38,309,*68
$GNGLL,5939.93264,N,01046.68024,E,084054.00,A,A*7D
$GNRMC,084055.00,A,5939.93248,N,01046.68017,E,0.879,,270824,,,A*66
$GNVTG,,T,,M,0.879,N,1.628,K,A*36
$GNGGA,084055.00,5939.93248,N,01046.68017,E,1,08,1.92,100.3,M,38.7,M,,*4B
$GNGSA,A,3,02,17,22,32,19,21,,,,,,,3.58,1.92,3.02*17
$GNGSA,A,3,85,69,,,,,,,,,,,3.58,1.92,3.02*1B
$GPGSV,2,1,08,02,76,172,30,03,45,237,09,17,36,304,18,19,15,321,12*79
$GPGSV,2,2,08,21,60,141,28,22,20,289,21,24,00,353,,32,37,058,18*7A
$GLGSV,3,1,10,68,03,034,,69,49,049,21,70,56,190,,71,09,206,*67
$GLGSV,3,2,10,76,06,290,,77,20,332,,78,13,030,,84,25,136,*68
$GLGSV,3,3,10,85,81,170,23,86,38,309,*68
$GNGLL,5939.93248,N,01046.68017,E,084055.00,A,A*72
$GNRMC,084056.00,A,5939.93212,N,01046.67926,E,1.202,,270824,,,A*69
$GNVTG,,T,,M,1.202,N,2.226,K,A*38
$GNGGA,084056.00,5939.93212,N,01046.67926,E,1,09,1.69,100.4,M,38.7,M,,*41
$GNGSA,A,3,02,17,22,03,32,19,21,,,,,,3.34,1.69,2.88*19
$GNGSA,A,3,85,69,,,,,,,,,,,3.34,1.69,2.88*16
$GPGSV,2,1,08,02,76,172,30,03,45,237,12,17,36,304,18,19,15,321,11*70
$GPGSV,2,2,08,21,60,141,28,22,20,289,20,24,00,353,,32,37,058,17*74
$GLGSV,3,1,10,68,03,034,,69,49,049,22,70,56,190,,71,09,206,*64
$GLGSV,3,2,10,76,06,290,,77,20,332,,78,13,030,,84,25,136,*68
$GLGSV,3,3,10,85,81,170,22,86,38,309,*69
$GNGLL,5939.93212,N,01046.67926,E,084056.00,A,A*7A
$GNRMC,084057.00,A,5939.93214,N,01046.67919,E,0.733,,270824,,,A*64
$GNVTG,,T,,M,0.733,N,1.358,K,A*35
$GNGGA,084057.00,5939.93214,N,01046.67919,E,1,09,1.69,100.8,M,38.7,M,,*46
$GNGSA,A,3,02,17,22,03,32,19,21,,,,,,3.34,1.69,2.88*19
$GNGSA,A,3,85,69,,,,,,,,,,,3.34,1.69,2.88*16
$GPGSV,2,1,08,02,76,172,30,03,45,237,13,17,36,304,17,19,15,321,13*7C
$GPGSV,2,2,08,21,60,141,28,22,20,289,21,24,00,353,,32,37,058,17*75
$GLGSV,3,1,10,68,03,034,,69,49,049,21,70,56,190,25,71,09,206,*60
$GLGSV,3,2,10,76,06,290,,77,19,331,,78,13,030,,84,25,136,*61
$GLGSV,3,3,10,85,81,170,21,86,38,309,*6A
$GNGLL,5939.93214,N,01046.67919,E,084057.00,A,A*71
$GNRMC,084058.00,A,5939.93233,N,01046.67904,E,0.302,,270824,,,A*64
$GNVTG,,T,,M,0.302,N,0.560,K,A*3F
$GNGGA,084058.00,5939.93233,N,01046.67904,E,1,09,1.69,100.9,M,38.7,M,,*41
$GNGSA,A,3,02,17,22,03,32,19,21,,,,,,3.34,1.69,2.89*18
$GNGSA,A,3,85,69,,,,,,,,,,,3.34,1.69,2.89*17
$GPGSV,2,1,08,02,76,172,31,03,45,237,14,17,36,304,18,19,15,321,10*76
$GPGSV,2,2,08,21,60,141,29,22,20,289,21,24,00,353,,32,37,058,18*7B
$GLGSV,3,1,10,68,03,034,,69,49,049,20,70,56,190,,71,09,206,*66
$GLGSV,3,2,10,76,06,290,,77,19,331,,78,13,030,,84,25,136,*61
$GLGSV,3,3,10,85,81,170,21,86,38,309,*6A
$GNGLL,5939.93233,N,01046.67904,E,084058.00,A,A*77
$GNRMC,084059.00,A,5939.93262,N,01046.67939,E,0.334,,270824,,,A*6A
$GNVTG,,T,,M,0.334,N,0.619,K,A*37
$GNGGA,084059.00,5939.93262,N,01046.67939,E,1,08,1.92,101.7,M,38.7,M,,*40
$GNGSA,A,3,02,17,22,32,19,21,,,,,,,3.58,1.92,3.02*17
$GNGSA,A,3,85,69,,,,,,,,,,,3.58,1.92,3.02*1B
$GPGSV,2,1,08,02,76,172,32,03,45,237,,17,36,304,20,19,15,321,13*78
$GPGSV,2,2,08,21,60,141,29,22,20,289,20,24,00,353,,32,37,058,19*7B
$GLGSV,3,1,10,68,03,034,,69,49,049,20,70,56,190,,71,09,206,*66
$GLGSV,3,2,10,76,06,290,,77,19,331,,78,13,030,,84,25,136,*61
$GLGSV,3,3,10,85,81,170,21,86,38,309,*6A
$GNGLL,5939.93262,N,01046.67939,E,084059.00,A,A*7C
$GNRMC,084100.00,A,5939.93267,N,01046.67866,E,0.457,,270824,,,A*6B
$GNVTG,,T,,M,0.457,N,0.846,K,A*31
$GNGGA,084100.00,5939.93267,N,01046.67866,E,1,08,1.92,102.0,M,38.7,M,,*47
$GNGSA,A,3,02,17,22,32,19,21,,,,,,,3.58,1.92,3.02*17
$GNGSA,A,3,85,69,,,,,,,,,,,3.58,1.92,3.02*1B
$GPGSV,2,1,08,02,76,172,31,03,45,237,,17,36,304,19,19,15,321,08*7B
$GPGSV,2,2,08,21,60,141,28,22,20,289,20,24,00,353,,32,37,058,19*7A
$GLGSV,3,1,10,68,03,034,,69,49,049,20,70,56,190,,71,09,206,*66
$GLGSV,3,2,10,76,06,290,,77,19,331,,78,13,030,,84,25,136,*61
$GLGSV,3,3,10,85,81,170,21,86,38,309,*6A
$GNGLL,5939.93267,N,01046.67866,E,084100.00,A,A*7F
$GNRMC,084101.00,A,5939.93283,N,01046.67822,E,0.520,,270824,,,A*61
$GNVTG,,T,,M,0.520,N,0.963,K,A*36
$GNGGA,084101.00,5939.93283,N,01046.67822,E,1,08,1.92,102.3,M,38.7,M,,*4F
$GNGSA,A,3,02,17,22,32,19,21,,,,,,,3.58,1.92,3.02*17
$GNGSA,A,3,85,69,,,,,,,,,,,3.58,1.92,3.02*1B
$GPGSV,2,1,08,02,76,172,31,03,45,237,,17,36,304,19,19,15,321,09*7A
$GPGSV,2,2,08,21,60,141,28,22,20,289,20,24,00,353,,32,37,058,19*7A
$GLGSV,3,1,10,68,03,034,,69,49,049,20,70,56,190,,71,09,206,*66
$GLGSV,3,2,10,76,06,290,,77,19,331,,78,13,030,,84,25,136,*61
$GLGSV,3,3,10,85,81,170,21,86,38,309,*6A
$GNGLL,5939.93283,N,01046.67822,E,084101.00,A,A*74
$GNRMC,084102.00,A,5939.93297,N,01046.67823,E,0.175,,270824,,,A*62
$GNVTG,,T,,M,0.175,N,0.325,K,A*3A
$GNGGA,084102.00,5939.93297,N,01046.67823,E,1,08,1.92,102.7,M,38.7,M,,*4C
$GNGSA,A,3,02,17,22,32,19,21,,,,,,,3.58,1.92,3.02*17
$GNGSA,A,3,85,69,,,,,,,,,,,3.58,1.92,3.02*1B
$GPGSV,2,1,08,02,76,172,30,03,45,237,,17,36,304,20,19,15,321,10*79
$GPGSV,2,2,08,21,60,141,28,22,20,289,21,24,00,353,,32,37,058,19*7B
$GLGSV,3,1,10,68,03,034,,69,49,049,19,70,56,190,,71,09,206,*6C
$GLGSV,3,2,10,76,06,290,,77,19,331,,78,13,030,,84,25,136,*61
$GLGSV,3,3,10,85,81,170,21,86,38,309,*6A
$GNGLL,5939.93297,N,01046.67823,E,084102.00,A,A*73
$GNRMC,084103.00,A,5939.93325,N,01046.67814,E,0.246,,270824,,,A*6C
$GNVTG,,T,,M,0.246,N,0.455,K,A*39
$GNGGA,084103.00,5939.93325,N,01046.67814,E,1,07,1.94,103.1,M,38.7,M,,*4F
$GNGSA,A,3,02,17,22,32,21,,,,,,,,3.65,1.94,3.10*14
$GNGSA,A,3,85,69,,,,,,,,,,,3.65,1.94,3.10*10
$GPGSV,2,1,08,02,76,172,29,03,45,237,,17,36,304,20,19,15,321,10*71
$GPGSV,2,2,08,21,60,141,28,22,20,289,20,24,00,353,,32,37,058,20*70
$GLGSV,3,1,10,68,03,034,,69,49,049,19,70,56,190,,71,09,206,*6C
$GLGSV,3,2,10,76,06,290,,77,19,331,,78,13,030,,84,25,136,*61
$GLGSV,3,3,10,85,81,170,22,86,38,309,*69
$GNGLL,5939.93325,N,01046.67814,E,084103.00,A,A*7E
$GNRMC,084104.00,A,5939.93398,N,01046.67818,E,0.824,,270824,,,A*6F
$GNVTG,,T,,M,0.824,N,1.526,K,A*33
$GNGGA,084104.00,5939.93398,N,01046.67818,E,1,07,1.93,103.6,M,38.7,M,,*42
$GNGSA,A,3,02,17,22,32,21,,,,,,,,3.65,1.93,3.09*1B
$GNGSA,A,3,85,69,,,,,,,,,,,3.65,1.93,3.09*1F
$GPGSV,2,1,08,02,76,172,29,03,45,237,,17,36,304,20,19,15,321,10*71
$GPGSV,2,2,08,21,60,141,28,22,20,289,20,24,00,353,,32,37,058,21*71
$GLGSV,3,1,10,68,03,034,,69,49,049,18,70,56,190,,71,09,206,*6D
$GLGSV,3,2,10,76,06,290,,77,19,331,,78,13,030,,84,25,136,*61
$GLGSV,3,3,10,85,81,170,22,86,38,309,*69
$GNGLL,5939.93398,N,01046.67818,E,084104.00,A,A*73
$GNRMC,084105.00,A,5939.93408,N,01046.67827,E,0.616,,270824,,,A*63
$GNVTG,,T,,M,0.616,N,1.141,K,A*39
$GNGGA,084105.00,5939.93408,N,01046.67827,E,1,07,1.93,104.0,M,38.7,M,,*40
$GNGSA,A,3,02,17,22,32,21,,,,,,,,3.65,1.93,3.09*1B
$GNGSA,A,3,85,69,,,,,,,,,,,3.65,1.93,3.09*1F
$GPGSV,2,1,08,02,76,172,29,03,45,237,,17,36,304,21,19,15,321,10*70
$GPGSV,2,2,08,21,60,141,28,22,20,289,20,24,00,353,,32,37,058,21*71
$GLGSV,3,1,10,68,03,034,,69,49,049,17,70,56,190,,71,09,206,*62
$GLGSV,3,2,10,76,06,290,,77,19,331,,78,13,030,,84,25,136,*61
$GLGSV,3,3,10,85,81,169,22,86,38,309,*61
$GNGLL,5939.93408,N,01046.67827,E,084105.00,A,A*70
$GNRMC,084106.00,A,5939.93410,N,01046.67816,E,0.379,,270824,,,A*67
$GNVTG,,T,,M,0.379,N,0.703,K,A*34
$GNGGA,084106.00,5939.93410,N,01046.67816,E,1,07,1.93,104.4,M,38.7,M,,*4C
$GNGSA,A,3,02,17,22,32,21,,,,,,,,3.65,1.93,3.09*1B
$GNGSA,A,3,85,69,,,,,,,,,,,3.65,1.93,3.09*1F
$GPGSV,2,1,08,02,76,172,29,03,45,237,,17,36,304,20,19,15,321,10*71
$GPGSV,2,2,08,21,60,141,28,22,20,289,20,24,00,353,,32,37,058,21*71
$GLGSV,3,1,10,68,03,034,,69,49,049,16,70,56,190,,71,09,206,*63
$GLGSV,3,2,10,76,06,290,,77,19,331,,78,13,030,,84,25,136,*61
$GLGSV,3,3,10,85,81,169,22,86,39,309,*60
$GNGLL,5939.93410,N,01046.67816,E,084106.00,A,A*78
$GNRMC,084107.00,A,5939.93419,N,01046.67788,E,0.245,,270824,,,A*69
$GNVTG,,T,,M,0.245,N,0.453,K,A*3C
$GNGGA,084107.00,5939.93419,N,01046.67788,E,1,07,1.93,104.8,M,38.7,M,,*40
$GNGSA,A,3,02,17,22,32,21,,,,,,,,3.65,1.93,3.09*1B
$GNGSA,A,3,85,69,,,,,,,,,,,3.65,1.93,3.09*1F
$GPGSV,2,1,08,02,76,172,29,03,45,237,,17,36,304,20,19,15,321,13*72
$GPGSV,2,2,08,21,60,141,28,22,20,289,19,24,00,353,,32,37,058,22*78
$GLGSV,3,1,10,68,03,034,,69,49,049,16,70,56,190,,71,09,206,*63
$GLGSV,3,2,10,76,06,290,,77,19,331,,78,13,030,,84,25,136,*61
$GLGSV,3,3,10,85,81,169,22,86,39,309,*60
$GNGLL,5939.93419,N,01046.67788,E,084107.00,A,A*78
$GNRMC,084108.00,A,5939.93418,N,01046.67772,E,0.159,,270824,,,A*6C
$GNVTG,,T,,M,0.159,N,0.294,K,A*3F
$GNGGA,084108.00,5939.93418,N,01046.67772,E,1,07,1.93,105.2,M,38.7,M,,*40
$GNGSA,A,3,02,17,22,32,21,,,,,,,,3.65,1.93,3.09*1B
$GNGSA,A,3,85,69,,,,,,,,,,,3.65,1.93,3.09*1F
$GPGSV,2,1,08,02,76,172,29,03,45,237,,17,36,304,20,19,15,321,11*70
$GPGSV,2,2,08,21,60,141,29,22,20,289,19,24,00,353,,32,37,058,22*79
$GLGSV,3,1,10,68,03,034,,69,49,049,18,70,56,190,,71,09,206,*6D
$GLGSV,3,2,10,76,06,290,,77,19,331,,78,13,030,,84,25,136,*61
$GLGSV,3,3,10,85,81,169,24,86,39,309,*66
$GNGLL,5939.93418,N,01046.67772,E,084108.00,A,A*73
$GNRMC,084109.00,A,5939.93421,N,01046.67741,E,0.209,,270824,,,A*61
$GNVTG,,T,,M,0.209,N,0.386,K,A*3B
$GNGGA,084109.00,5939.93421,N,01046.67741,E,1,08,1.92,105.6,M,38.7,M,,*41
$GNGSA,A,3,02,17,22,32,19,21,,,,,,,3.58,1.92,3.02*17
$GNGSA,A,3,85,69,,,,,,,,,,,3.58,1.92,3.02*1B
$GPGSV,2,1,08,02,76,171,30,03,45,237,,17,36,304,20,19,15,321,11*7B
$GPGSV,2,2,08,21,60,141,31,22,20,289,19,24,00,353,,32,37,058,24*76
$GLGSV,3,1,10,68,03,034,,69,49,049,17,70,56,190,,71,09,206,*62
$GLGSV,3,2,10,76,06,290,,77,19,331,,78,13,030,,84,25,136,*61
$GLGSV,3,3,10,85,81,169,27,86,39,309,*65
$GNGLL,5939.93421,N,01046.67741,E,084109.00,A,A*78
$GNRMC,084110.00,A,5939.93464,N,01046.67765,E,0.289,,270824,,,A*66
$GNVTG,,T,,M,0.289,N,0.535,K,A*3D
$GNGGA,084110.00,5939.93464,N,01046.67765,E,1,08,1.92,106.0,M,38.7,M,,*4B
$GNGSA,A,3,02,17,22,32,19,21,,,,,,,3.58,1.92,3.02*17
$GNGSA,A,3,85,69,,,,,,,,,,,3.58,1.92,3.02*1B
$GPGSV,2,1,08,02,76,171,29,03,46,237,,17,36,304,21,19,15,321,11*71
$GPGSV,2,2,08,21,60,141,31,22,20,289,18,24,00,353,,32,37,058,25*76
$GLGSV,3,1,10,68,03,034,,69,49,049,18,70,56,190,,71,09,206,*6D
$GLGSV,3,2,10,76,06,290,,77,19,331,,78,13,030,,84,25,136,*61
$GLGSV,3,3,10,85,81,169,29,86,39,309,*6B
$GNGLL,5939.93464,N,01046.67765,E,084110.00,A,A*77
$GNRMC,084111.00,A,5939.93497,N,01046.67763,E,0.339,,270824,,,A*67
$GNVTG,,T,,M,0.339,N,0.628,K,A*38
$GNGGA,084111.00,5939.93497,N,01046.67763,E,1,08,1.91,106.5,M,38.7,M,,*46
$GNGSA,A,3,02,17,22,32,19,21,,,,,,,3.58,1.91,3.02*14
$GNGSA,A,3,85,69,,,,,,,,,,,3.58,1.91,3.02*18
$GPGSV,2,1,08,02,76,171,29,03,46,237,,17,36,304,21,19,15,321,11*71
$GPGSV,2,2,08,21,60,141,31,22,20,289,17,24,00,353,,32,37,058,26*7A
$GLGSV,3,1,10,68,03,034,,69,49,049,18,70,56,190,,71,09,206,*6D
$GLGSV,3,2,10,76,06,290,,77,19,331,,78,13,030,,84,25,136,*61
$GLGSV,3,3,10,85,81,169,29,86,39,309,*6B
$GNGLL,5939.93497,N,01046.67763,E,084111.00,A,A*7C
$GNRMC,084112.00,A,5939.93508,N,01046.67760,E,0.294,,270824,,,A*66
$GNVTG,,T,,M,0.294,N,0.544,K,A*37
$GNGGA,084112.00,5939.93508,N,01046.67760,E,1,08,1.91,107.1,M,38.7,M,,*44
$GNGSA,A,3,02,17,22,32,19,21,,,,,,,3.57,1.91,3.02*1B
$GNGSA,A,3,85,69,,,,,,,,,,,3.57,1.91,3.02*17
$GPGSV,2,1,08,02,76,171,29,03,46,237,,17,36,304,22,19,15,321,11*72
$GPGSV,2,2,08,21,60,141,31,22,20,289,18,24,00,353,,32,37,058,26*75
$GLGSV,3,1,10,68,03,034,,69,49,049,18,70,56,190,,71,09,206,*6D
$GLGSV,3,2,10,76,06,290,,77,19,331,,78,13,030,,84,25,136,*61
$GLGSV,3,3,10,85,81,169,30,86,39,309,*63
$GNGLL,5939.93508,N,01046.67760,E,084112.00,A,A*7B
$GNRMC,084113.00,A,5939.93515,N,01046.67753,E,0.372,,270824,,,A*62
$GNVTG,,T,,M,0.372,N,0.688,K,A*3D
$GNGGA,084113.00,5939.93515,N,01046.67753,E,1,08,1.91,107.2,M,38.7,M,,*4A
$GNGSA,A,3,02,17,22,32,19,21,,,,,,,3.57,1.91,3.02*1B
$GNGSA,A,3,85,69,,,,,,,,,,,3.57,1.91,3.02*17
$GPGSV,2,1,08,02,76,171,30,03,46,237,,17,36,304,22,19,15,321,09*73
$GPGSV,2,2,08,21,60,141,31,22,20,289,18,24,00,353,,32,37,058,26*75
$GLGSV,3,1,10,68,03,034,,69,49,049,18,70,56,190,,71,09,206,*6D
$GLGSV,3,2,10,76,06,290,,77,19,331,,78,13,030,,84,25,136,*61
$GLGSV,3,3,10,85,81,169,29,86,39,309,*6B
$GNGLL,5939.93515,N,01046.67753,E,084113.00,A,A*76
$GNRMC,084114.00,A,5939.93524,N,01046.67728,E,0.233,,270824,,,A*6F
$GNVTG,,T,,M,0.233,N,0.432,K,A*3A
$GNGGA,084114.00,5939.93524,N,01046.67728,E,1,08,1.91,107.5,M,38.7,M,,*44
$GNGSA,A,3,02,17,22,32,19,21,,,,,,,3.57,1.91,3.02*1B
$GNGSA,A,3,85,69,,,,,,,,,,,3.57,1.91,3.02*17
$GPGSV,2,1,08,02,76,171,30,03,46,237,,17,36,304,22,19,15,321,11*7A
$GPGSV,2,2,08,21,59,141,31,22,20,289,18,24,00,353,,32,37,058,26*7F
$GLGSV,3,1,10,68,03,034,,69,49,049,18,70,56,190,25,71,09,206,*6A
$GLGSV,3,2,10,76,06,290,,77,19,331,,78,13,030,,84,25,136,*61
$GLGSV,3,3,10,85,81,169,29,86,39,309,*6B
$GNGLL,5939.93524,N,01046.67728,E,084114.00,A,A*7F
$GNRMC,084115.00,A,5939.93547,N,01046.67717,E,0.113,,270824,,,A*66
$GNVTG,,T,,M,0.113,N,0.209,K,A*35
$GNGGA,084115.00,5939.93547,N,01046.67717,E,1,08,1.91,107.6,M,38.7,M,,*4F
$GNGSA,A,3,02,17,22,32,19,21,,,,,,,3.57,1.91,3.02*1B
$GNGSA,A,3,85,69,,,,,,,,,,,3.57,1.91,3.02*17
$GPGSV,2,1,08,02,76,171,31,03,46,237,,17,36,304,22,19,15,321,14*7E
$GPGSV,2,2,08,21,59,141,31,22,19,288,19,24,00,353,,32,37,058,27*74
$GLGSV,3,1,10,68,03,034,,69,49,049,18,70,56,190,,71,09,206,*6D
$GLGSV,3,2,10,76,06,290,,77,19,331,,78,13,030,,84,25,136,*61
$GLGSV,3,3,10,85,81,169,29,86,39,309,*6B
$GNGLL,5939.93547,N,01046.67717,E,084115.00,A,A*77
$GNRMC,084116.00,A,5939.93562,N,01046.67691,E,0.177,,270824,,,A*6F
$GNVTG,,T,,M,0.177,N,0.327,K,A*3A
$GNGGA,084116.00,5939.93562,N,01046.67691,E,1,08,1.91,108.0,M,38.7,M,,*4D
$GNGSA,A,3,02,17,22,32,19,21,,,,,,,3.57,1.91,3.02*1B
$GNGSA,A,3,85,69,,,,,,,,,,,3.57,1.91,3.02*17
$GPGSV,2,1,08,02,76,171,31,03,46,237,18,17,36,304,22,19,15,321,11*72
$GPGSV,2,2,08,21,59,141,32,22,19,288,19,24,00,353,,32,37,058,27*77
$GLGSV,3,1,10,68,03,034,,69,49,049,18,70,56,190,,71,09,206,*6D
$GLGSV,3,2,10,76,06,290,,77,19,331,,78,13,030,,84,25,136,*61
$GLGSV,3,3,10,85,81,169,29,86,39,309,*6B
$GNGLL,5939.93562,N,01046.67691,E,084116.00,A,A*7C
$GNRMC,084117.00,A,5939.93572,N,01046.67678,E,0.167,,270824,,,A*69
$GNVTG,,T,,M,0.167,N,0.309,K,A*37
$GNGGA,084117.00,5939.93572,N,01046.67678,E,1,08,1.91,108.2,M,38.7,M,,*48
$GNGSA,A,3,02,17,22,32,19,21,,,,,,,3.57,1.91,3.02*1B
$GNGSA,A,3,85,69,,,,,,,,,,,3.57,1.91,3.02*17
$GPGSV,2,1,07,02,76,171,31,03,46,237,18,17,36,304,22,19,15,321,13*7F
$GPGSV,2,2,07,21,59,141,32,22,19,288,18,32,37,058,27*4A
$GLGSV,3,1,10,68,03,034,,69,49,049,19,70,56,190,,71,09,206,*6C
$GLGSV,3,2,10,76,06,290,,77,19,331,,78,13,030,,84,25,136,*61
$GLGSV,3,3,10,85,81,169,28,86,39,309,*6A
$GNGLL,5939.93572,N,01046.67678,E,084117.00,A,A*7B
$GNRMC,084118.00,A,5939.93597,N,01046.67644,E,0.456,,270824,,,A*65
$GNVTG,,T,,M,0.456,N,0.844,K,A*32
$GNGGA,084118.00,5939.93597,N,01046.67644,E,1,08,1.91,108.4,M,38.7,M,,*45
$GNGSA,A,3,02,17,22,32,19,21,,,,,,,3.57,1.91,3.02*1B
$GNGSA,A,3,85,69,,,,,,,,,,,3.57,1.91,3.02*17
$GPGSV,2,1,07,02,76,171,31,03,46,237,18,17,36,304,22,19,15,321,12*7E
$GPGSV,2,2,07,21,59,141,31,22,19,288,18,32,37,058,27*49
$GLGSV,3,1,10,68,03,034,,69,49,049,22,70,56,190,,71,09,206,*64
$GLGSV,3,2,10,76,06,290,,77,19,331,,78,13,030,,84,25,136,*61
$GLGSV,3,3,10,85,81,169,30,86,39,309,*63
$GNGLL,5939.93597,N,01046.67644,E,084118.00,A,A*70
$GNRMC,084119.00,A,5939.93609,N,01046.67629,E,0.350,,270824,,,A*6A
$GNVTG,,T,,M,0.350,N,0.648,K,A*31
$GNGGA,084119.00,5939.93609,N,01046.67629,E,1,08,1.91,108.5,M,38.7,M,,*4A
$GNGSA,A,3,02,17,22,32,19,21,,,,,,,3.57,1.91,3.02*1B
$GNGSA,A,3,85,69,,,,,,,,,,,3.57,1.91,3.02*17
$GPGSV,2,1,07,02,76,171,32,03,46,237,18,17,36,304,22,19,15,321,15*7A
$GPGSV,2,2,07,21,59,141,30,22,19,288,17,32,37,058,27*47
$GLGSV,3,1,10,68,03,034,,69,49,049,23,70,56,190,,71,09,206,*65
$GLGSV,3,2,10,76,06,290,,77,19,331,,78,13,030,,84,25,136,*61
$GLGSV,3,3,10,85,81,169,30,86,39,309,*63
$GNGLL,5939.93609,N,01046.67629,E,084119.00,A,A*7E
$GNRMC,084120.00,A,5939.93642,N,01046.67636,E,0.323,,270824,,,A*65
$GNVTG,,T,,M,0.323,N,0.598,K,A*3B
$GNGGA,084120.00,5939.93642,N,01046.67636,E,1,09,1.69,109.3,M,38.7,M,,*40
$GNGSA,A,3,02,17,22,03,32,19,21,,,,,,3.35,1.69,2.89*19
$GNGSA,A,3,85,69,,,,,,,,,,,3.35,1.69,2.89*16
$GPGSV,2,1,07,02,76,171,32,03,46,237,18,17,36,304,22,19,15,321,14*7B
$GPGSV,2,2,07,21,59,141,30,22,19,288,17,32,36,057,27*49
$GLGSV,3,1,10,68,03,034,,69,49,049,21,70,56,190,,71,09,206,*67
$GLGSV,3,2,10,76,06,290,,77,19,331,,78,13,030,,84,25,136,*61
$GLGSV,3,3,10,85,81,169,30,86,39,309,*63
$GNGLL,5939.93642,N,01046.67636,E,084120.00,A,A*75
$GNRMC,084121.00,A,5939.93663,N,01046.67637,E,0.232,,270824,,,A*67
$GNVTG,,T,,M,0.232,N,0.430,K,A*39
$GNGGA,084121.00,5939.93663,N,01046.67637,E,1,09,1.69,109.7,M,38.7,M,,*47
$GNGSA,A,3,02,17,22,03,32,19,21,,,,,,3.35,1.69,2.89*19
$GNGSA,A,3,85,69,,,,,,,,,,,3.35,1.69,2.89*16
$GPGSV,2,1,07,02,76,171,31,03,46,237,17,17,36,304,22,19,15,321,18*7B
$GPGSV,2,2,07,21,59,141,30,22,19,288,16,32,36,057,28*47
$GLGSV,3,1,10,68,03,034,,69,49,049,22,70,56,190,,71,09,206,*64
$GLGSV,3,2,10,76,06,290,,77,19,331,,78,13,030,,84,25,136,*61
$GLGSV,3,3,10,85,81,169,29,86,39,309,*6B
$GNGLL,5939.93663,N,01046.67637,E,084121.00,A,A*76
$GNRMC,084122.00,A,5939.93676,N,01046.67660,E,0.146,,270824,,,A*62
$GNVTG,,T,,M,0.146,N,0.270,K,A*3B
$GNGGA,084122.00,5939.93676,N,01046.67660,E,1,09,1.69,110.2,M,38.7,M,,*4F
$GNGSA,A,3,02,17,22,03,32,19,21,,,,,,3.35,1.69,2.89*19
$GNGSA,A,3,85,69,,,,,,,,,,,3.35,1.69,2.89*16
$GPGSV,2,1,07,02,76,171,31,03,46,237,16,17,36,304,22,19,15,321,13*71
$GPGSV,2,2,07,21,59,141,31,22,19,288,15,32,36,057,28*45
$GLGSV,3,1,10,68,03,034,,69,49,049,23,70,56,190,,71,09,206,*65
$GLGSV,3,2,10,76,06,290,,77,19,331,,78,13,030,,84,25,136,*61
$GLGSV,3,3,10,85,81,169,28,86,39,309,*6A
$GNGLL,5939.93676,N,01046.67660,E,084122.00,A,A*73
$GNRMC,084123.00,A,5939.93686,N,01046.67689,E,0.149,,270824,,,A*64
$GNVTG,,T,,M,0.149,N,0.276,K,A*32
$GNGGA,084123.00,5939.93686,N,01046.67689,E,1,09,1.69,110.6,M,38.7,M,,*42
$GNGSA,A,3,02,17,22,03,32,19,21,,,,,,3.35,1.69,2.89*19
$GNGSA,A,3,85,69,,,,,,,,,,,3.35,1.69,2.89*16
$GPGSV,2,1,07,02,76,171,31,03,46,237,15,17,36,304,22,19,15,321,17*76
$GPGSV,2,2,07,21,59,141,32,22,19,288,16,32,36,057,28*45
$GLGSV,3,1,10,68,03,034,,69,49,049,23,70,56,190,,71,09,206,*65
$GLGSV,3,2,10,76,06,290,,77,19,331,,78,13,030,,84,25,136,*61
$GLGSV,3,3,10,85,81,169,28,86,39,309,*6A
$GNGLL,5939.93686,N,01046.67689,E,084123.00,A,A*7A
$GNRMC,084124.00,A,5939.93704,N,01046.67687,E,0.136,,270824,,,A*6E
$GNVTG,,T,,M,0.136,N,0.253,K,A*3D
$GNGGA,084124.00,5939.93704,N,01046.67687,E,1,09,1.69,111.0,M,38.7,M,,*47
$GNGSA,A,3,02,17,22,03,32,19,21,,,,,,3.35,1.69,2.89*19
$GNGSA,A,3,85,69,,,,,,,,,,,3.35,1.69,2.89*16
$GPGSV,2,1,07,02,76,171,31,03,46,237,15,17,36,304,22,19,15,321,11*70
$GPGSV,2,2,07,21,59,141,33,22,19,288,17,32,36,057,27*4A
$GLGSV,3,1,10,68,03,034,,69,49,049,23,70,56,190,24,71,09,206,*63
$GLGSV,3,2,10,76,06,290,,77,19,331,,78,13,030,,84,25,136,*61
$GLGSV,3,3,10,85,81,169,27,86,39,309,*65
$GNGLL,5939.93704,N,01046.67687,E,084124.00,A,A*78
$GNRMC,084125.00,A,5939.93720,N,01046.67694,E,0.205,,270824,,,A*68
$GNVTG,,T,,M,0.205,N,0.380,K,A*31
$GNGGA,084125.00,5939.93720,N,01046.67694,E,1,09,1.69,111.1,M,38.7,M,,*43
$GNGSA,A,3,02,17,22,03,32,19,21,,,,,,3.35,1.69,2.89*19
$GNGSA,A,3,85,69,,,,,,,,,,,3.35,1.69,2.89*16
$GPGSV,2,1,07,02,76,171,32,03,46,237,15,17,36,304,23,19,15,321,14*77
$GPGSV,2,2,07,21,59,141,32,22,19,288,16,32,36,057,27*4A
$GLGSV,3,1,10,68,03,034,,69,49,049,23,70,56,190,,71,09,206,*65
$GLGSV,3,2,10,76,06,290,,77,19,331,,78,13,030,,84,25,136,*61
$GLGSV,3,3,10,85,81,169,27,86,39,309,*65
$GNGLL,5939.93720,N,01046.67694,E,084125.00,A,A*7D
$GNRMC,084126.00,A,5939.93730,N,01046.67733,E,0.372,,270824,,,A*67
$GNVTG,,T,,M,0.372,N,0.690,K,A*34
$GNGGA,084126.00,5939.93730,N,01046.67733,E,1,09,1.69,111.7,M,38.7,M,,*4B
$GNGSA,A,3,02,17,22,03,32,19,21,,,,,,3.35,1.69,2.89*19
$GNGSA,A,3,85,69,,,,,,,,,,,3.35,1.69,2.89*16
$GPGSV,2,1,07,02,76,171,32,03,46,237,15,17,36,304,23,19,15,321,17*74
$GPGSV,2,2,07,21,59,141,33,22,19,288,16,32,36,057,27*4B
$GLGSV,3,1,10,68,03,034,,69,49,049,22,70,56,190,,71,09,206,*64
$GLGSV,3,2,10,76,06,290,,77,19,331,,78,13,030,,84,25,136,*61
$GLGSV,3,3,10,85,81,169,27,86,39,309,*65
$GNGLL,5939.93730,N,01046.67733,E,084126.00,A,A*73
$GNRMC,084127.00,A,5939.93741,N,01046.67747,E,0.275,,270824,,,A*65
$GNVTG,,T,,M,0.275,N,0.510,K,A*39
$GNGGA,084127.00,5939.93741,N,01046.67747,E,1,09,1.69,112.0,M,38.7,M,,*4B
$GNGSA,A,3,02,17,22,03,32,19,21,,,,,,3.35,1.69,2.89*19
$GNGSA,A,3,85,69,,,,,,,,,,,3.35,1.69,2.89*16
$GPGSV,2,1,07,02,76,171,32,03,46,237,15,17,36,304,23,19,15,321,17*74
$GPGSV,2,2,07,21,59,141,33,22,19,288,16,32,36,057,27*4B
$GLGSV,3,1,10,68,03,034,,69,49,049,21,70,56,190,,71,09,206,*67
$GLGSV,3,2,10,76,06,290,,77,19,331,,78,13,030,,84,25,136,*61
$GLGSV,3,3,10,85,81,169,27,86,39,309,*65
$GNGLL,5939.93741,N,01046.67747,E,084127.00,A,A*77
$GNRMC,084128.00,A,5939.93759,N,01046.67748,E,0.206,,270824,,,A*68
$GNVTG,,T,,M,0.206,N,0.381,K,A*33
$GNGGA,084128.00,5939.93759,N,01046.67748,E,1,09,1.69,112.1,M,38.7,M,,*43
$GNGSA,A,3,02,17,22,03,32,19,21,,,,,,3.35,1.69,2.89*19
$GNGSA,A,3,85,69,,,,,,,,,,,3.35,1.69,2.89*16
$GPGSV,2,1,07,02,76,171,32,03,46,237,14,17,36,304,23,19,15,321,17*75
$GPGSV,2,2,07,21,59,141,33,22,19,288,16,32,36,057,27*4B
$GLGSV,3,1,10,68,03,034,,69,49,049,21,70,56,190,,71,09,206,*67
$GLGSV,3,2,10,76,06,290,,77,19,331,,78,13,030,,84,25,136,*61
$GLGSV,3,3,10,85,81,169,27,86,39,309,*65
$GNGLL,5939.93759,N,01046.67748,E,084128.00,A,A*7E
$GNRMC,084129.00,A,5939.93775,N,01046.67750,E,0.187,,270824,,,A*64
$GNVTG,,T,,M,0.187,N,0.347,K,A*33
$GNGGA,084129.00,5939.93775,N,01046.67750,E,1,09,1.69,112.1,M,38.7,M,,*45
$GNGSA,A,3,02,17,22,03,32,19,21,,,,,,3.35,1.69,2.89*19
$GNGSA,A,3,85,69,,,,,,,,,,,3.35,1.69,2.89*16
$GPGSV,2,1,07,02,76,171,32,03,46,237,13,17,36,304,23,19,15,321,18*7D
$GPGSV,2,2,07,21,59,141,33,22,19,288,16,32,36,057,27*4B
$GLGSV,3,1,10,68,03,034,,69,49,049,20,70,56,190,,71,09,206,*66
$GLGSV,3,2,10,76,06,290,,77,19,331,,78,13,030,,84,25,136,*61
$GLGSV,3,3,10,85,81,169,27,86,39,309,*65
$GNGLL,5939.93775,N,01046.67750,E,084129.00,A,A*78
$GNRMC,084130.00,A,5939.93785,N,01046.67803,E,0.690,,270824,,,A*6B
$GNVTG,,T,,M,0.690,N,1.278,K,A*3E
$GNGGA,084130.00,5939.93785,N,01046.67803,E,1,09,1.69,113.1,M,38.7,M,,*4A
$GNGSA,A,3,02,17,22,03,32,19,21,,,,,,3.35,1.69,2.89*19
$GNGSA,A,3,85,69,,,,,,,,,,,3.35,1.69,2.89*16
$GPGSV,2,1,07,02,76,171,31,03,46,237,11,17,36,304,24,19,15,321,18*7B
$GPGSV,2,2,07,21,59,141,33,22,19,288,16,32,36,057,27*4B
$GLGSV,3,1,10,68,03,034,,69,49,049,20,70,56,190,,71,09,206,*66
$GLGSV,3,2,10,76,06,290,,77,19,331,,78,13,030,,84,25,136,*61
$GLGSV,3,3,10,85,81,169,27,86,39,309,*65
$GNGLL,5939.93785,N,01046.67803,E,084130.00,A,A*76
$GNRMC,084131.00,A,5939.93796,N,01046.67822,E,0.673,,270824,,,A*66
$GNVTG,,T,,M,0.673,N,1.247,K,A*3F
$GNGGA,084131.00,5939.93796,N,01046.67822,E,1,09,1.69,113.4,M,38.7,M,,*4F
$GNGSA,A,3,02,17,22,03,32,19,21,,,,,,3.35,1.69,2.89*19
$GNGSA,A,3,85,69,,,,,,,,,,,3.35,1.69,2.89*16
$GPGSV,2,1,07,02,76,171,31,03,46,237,11,17,36,304,23,19,15,321,16*72
$GPGSV,2,2,07,21,59,141,33,22,19,288,14,32,36,057,28*46
$GLGSV,3,1,10,68,03,034,,69,49,049,20,70,56,190,,71,09,206,*66
$GLGSV,3,2,10,76,06,290,,77,19,331,,78,13,030,,84,25,136,*61
$GLGSV,3,3,10,85,81,169,27,86,39,309,*65
$GNGLL,5939.93796,N,01046.67822,E,084131.00,A,A*76
$GNRMC,084132.00,A,5939.93812,N,01046.67826,E,0.372,,270824,,,A*66
$GNVTG,,T,,M,0.372,N,0.689,K,A*3C
$GNGGA,084132.00,5939.93812,N,01046.67826,E,1,09,1.69,113.7,M,38.7,M,,*48
$GNGSA,A,3,02,17,22,03,32,19,21,,,,,,3.35,1.69,2.89*19
$GNGSA,A,3,85,69,,,,,,,,,,,3.35,1.69,2.89*16
$GPGSV,2,1,07,02,76,171,31,03,46,237,11,17,36,304,23,19,15,321,16*72
$GPGSV,2,2,07,21,59,141,33,22,19,288,13,32,36,057,28*41
$GLGSV,3,1,10,68,03,034,,69,49,049,21,70,56,190,,71,09,206,*67
$GLGSV,3,2,10,76,06,290,,77,19,331,,78,13,030,,84,25,136,*61
$GLGSV,3,3,10,85,81,169,28,86,39,309,*6A
$GNGLL,5939.93812,N,01046.67826,E,084132.00,A,A*72
$GNRMC,084133.00,A,5939.93827,N,01046.67823,E,0.130,,270824,,,A*60
$GNVTG,,T,,M,0.130,N,0.240,K,A*39
$GNGGA,084133.00,5939.93827,N,01046.67823,E,1,09,1.69,113.8,M,38.7,M,,*45
$GNGSA,A,3,02,17,22,03,32,19,21,,,,,,3.35,1.69,2.90*11
$GNGSA,A,3,85,69,,,,,,,,,,,3.35,1.69,2.90*1E
$GPGSV,2,1,07,02,76,171,31,03,46,237,14,17,36,304,23,19,15,321,16*77
$GPGSV,2,2,07,21,59,141,31,22,19,288,14,32,36,057,27*4B
$GLGSV,3,1,10,68,03,034,,69,49,049,20,70,56,190,,71,09,206,*66
$GLGSV,3,2,10,76,06,290,,77,19,331,,78,13,030,,84,25,136,*61
$GLGSV,3,3,10,85,81,169,27,86,39,309,*65
$GNGLL,5939.93827,N,01046.67823,E,084133.00,A,A*70
$GNRMC,084134.00,A,5939.93844,N,01046.67832,E,0.220,,270824,,,A*60
$GNVTG,,T,,M,0.220,N,0.407,K,A*3E
$GNGGA,084134.00,5939.93844,N,01046.67832,E,1,09,1.69,114.1,M,38.7,M,,*49
$GNGSA,A,3,02,17,22,03,32,19,21,,,,,,3.35,1.69,2.90*11
$GNGSA,A,3,85,69,,,,,,,,,,,3.35,1.69,2.90*1E
$GPGSV,2,1,07,02,76,171,31,03,46,237,16,17,36,304,22,19,15,321,16*74
$GPGSV,2,2,07,21,59,141,31,22,19,288,15,32,36,057,26*4B
$GLGSV,3,1,10,68,03,034,,69,49,049,20,70,56,190,,71,09,206,*66
$GLGSV,3,2,10,76,06,290,,77,19,331,,78,13,030,,84,25,136,*61
$GLGSV,3,3,10,85,81,169,25,86,39,309,*67
$GNGLL,5939.93844,N,01046.67832,E,084134.00,A,A*72
$GNRMC,084135.00,A,5939.93870,N,01046.67809,E,0.553,,270824,,,A*6D
$GNVTG,,T,,M,0.553,N,1.024,K,A*39
$GNGGA,084135.00,5939.93870,N,01046.67809,E,1,09,1.69,114.4,M,38.7,M,,*42
$GNGSA,A,3,02,17,22,03,32,19,21,,,,,,3.35,1.69,2.90*11
$GNGSA,A,3,85,69,,,,,,,,,,,3.35,1.69,2.90*1E
$GPGSV,2,1,07,02,76,171,30,03,46,237,16,17,36,304,20,19,15,321,17*76
$GPGSV,2,2,07,21,59,141,25,22,19,288,16,32,36,057,24*4F
