rºbj±,*46
$GNGSA,A,3,29,07,20,06,09,11,,,,,,,1.96,1.08,1.64*19
$GNGSA,A,3,88,87,79,72,,,,,,,,,1.96,1.08,1.64*1C
$GPGSV,3,1,10,01,,,16,04,,,21,06,49,225,32,07,27,175,30*76
$GPGSV,3,2,10,09,80,183,28,11,43,293,40,16,13,080,31,20,22,296,41*76
$GPGSV,3,3,10,29,12,349,34,49,22,187,27*7F
$GLGSV,3,1,09,70,44,079,16,71,79,303,33,72,29,268,26,73,17,133,24*6B
$GLGSV,3,2,09,79,21,016,21,87,48,290,31,88,14,345,22,,,,19*51
$GLGSV,3,3,09,,,,19*64
$GNGLL,5939.93115,N,01046.66171,E,124931.00,A,A*76
$GNRMC,124932.00,A,5939.93117,N,01046.66170,E,0.216,,260824,,,A*60
$GNVTG,,T,,M,0.216,N,0.400,K,A*3C
$GNGGA,124932.00,5939.93117,N,01046.66170,E,1,10,1.08,103.2,M,38.7,M,,*47
$GNGSA,A,3,29,07,20,06,09,11,,,,,,,1.96,1.08,1.64*19
$GNGSA,A,3,88,87,79,72,,,,,,,,,1.96,1.08,1.64*1C
$GPGSV,3,1,10,01,,,22,04,,,30,06,49,225,35,07,27,175,30*76
$GPGSV,3,2,10,09,80,183,28,11,43,293,36,16,13,080,35,20,22,296,40*72
$GPGSV,3,3,10,29,12,349,35,49,22,187,27*7E
$GLGSV,3,1,09,70,44,079,15,71,79,303,28,72,29,268,27,73,17,133,21*66
$GLGSV,3,2,09,79,21,016,30,87,48,290,26,88,14,345,25,,,,30*5B
$GLGSV,3,3,09,,,,30*6F
$GNGLL,5939.93117,N,01046.66170,E,124932.00,A,A*76
$GNRMC,124933.00,A,5939.93117,N,01046.66177,E,0.069,,260824,,,A*6C
$GNVTG,,T,,M,0.069,N,0.127,K,A*36
$GNGGA,124933.00,5939.93117,N,01046.66177,E,1,10,1.08,103.1,M,38.7,M,,*42
$GNGSA,A,3,29,07,20,06,09,11,,,,,,,1.96,1.08,1.64*19
$GNGSA,A,3,88,87,79,72,,,,,,,,,1.96,1.08,1.64*1C
$GPGSV,3,1,09,01,,,24,04,,,29,06,49,225,35,07,27,175,29*78
$GPGSV,3,2,09,09,80,183,27,11,43,293,36,16,13,080,35,20,22,296,40*75
$GPGSV,3,3,09,29,12,349,36*43
$GLGSV,3,1,09,70,44,079,16,71,79,303,28,72,29,268,28,73,17,133,19*61
$GLGSV,3,2,09,79,21,016,31,87,48,290,27,88,14,345,26,,,,29*50
$GLGSV,3,3,09,,,,29*67
$GNGLL,5939.93117,N,01046.66177,E,124933.00,A,A*70
$GNRMC,124934.00,A,5939.93119,N,01046.66176,E,0.161,,260824,,,A*6D
$GNVTG,,T,,M,0.161,N,0.297,K,A*37
$GNGGA,124934.00,5939.93119,N,01046.66176,E,1,10,1.08,103.0,M,38.7,M,,*4B
$GNGSA,A,3,29,07,20,06,09,11,,,,,,,1.96,1.08,1.64*19
$GNGSA,A,3,88,87,79,72,,,,,,,,,1.96,1.08,1.64*1C
$GPGSV,3,1,09,01,,,26,04,,,29,06,49,225,35,07,27,175,30*72
$GPGSV,3,2,09,09,80,183,26,11,43,293,36,16,13,080,35,20,22,296,40*74
$GPGSV,3,3,09,29,12,349,36*43
$GLGSV,3,1,09,70,44,079,17,71,79,303,28,72,29,268,29,73,17,133,13*6B
$GLGSV,3,2,09,79,21,016,31,87,48,290,28,88,14,345,28,,,,29*51
$GLGSV,3,3,09,,,,29*67
$GNGLL,5939.93119,N,01046.66176,E,124934.00,A,A*78
$GNRMC,124935.00,A,5939.93118,N,01046.66171,E,0.033,,260824,,,A*6C
$GNVTG,,T,,M,0.033,N,0.062,K,A*39
$GNGGA,124935.00,5939.93118,N,01046.66171,E,1,10,1.08,102.9,M,38.7,M,,*44
$GNGSA,A,3,29,07,20,06,09,11,,,,,,,1.96,1.08,1.64*19
$GNGSA,A,3,88,87,79,72,,,,,,,,,1.96,1.08,1.64*1C
$GPGSV,3,1,09,01,,,25,04,,,27,06,49,225,24,07,27,175,34*7B
$GPGSV,3,2,09,09,80,183,26,11,43,293,34,16,13,080,35,20,22,296,37*76
$GPGSV,3,3,09,29,12,349,39*4C
$GLGSV,3,1,09,70,44,079,17,71,79,303,27,72,29,268,30,73,17,133,*6E
$GLGSV,3,2,09,79,21,016,22,87,48,290,30,88,14,345,29,,,,39*5A
$GLGSV,3,3,09,,,,39*66
$GNGLL,5939.93118,N,01046.66171,E,124935.00,A,A*7F
$GNRMC,124936.00,A,5939.93117,N,01046.66170,E,0.041,,260824,,,A*64
$GNVTG,,T,,M,0.041,N,0.075,K,A*3A
$GNGGA,124936.00,5939.93117,N,01046.66170,E,1,10,1.08,102.9,M,38.7,M,,*49
$GNGSA,A,3,29,07,20,06,09,11,,,,,,,1.96,1.08,1.64*19
$GNGSA,A,3,88,87,79,72,,,,,,,,,1.96,1.08,1.64*1C
$GPGSV,3,1,09,01,,,23,04,,,25,06,49,225,24,07,27,175,35*7E
$GPGSV,3,2,09,09,80,183,34,11,43,293,29,16,13,080,33,20,22,296,37*7F
$GPGSV,3,3,09,29,12,349,40*42
$GLGSV,3,1,09,70,44,079,19,71,79,303,26,72,29,268,32,73,17,133,27*66
$GLGSV,3,2,09,79,21,016,22,87,48,290,21,88,14,345,28,,,,41*54
$GLGSV,3,3,09,,,,41*69
$GNGLL,5939.93117,N,01046.66170,E,124936.00,A,A*72
$GNRMC,124937.00,A,5939.93120,N,01046.66172,E,0.030,,260824,,,A*65
$GNVTG,,T,,M,0.030,N,0.055,K,A*3E
$GNGGA,124937.00,5939.93120,N,01046.66172,E,1,10,1.08,102.9,M,38.7,M,,*4E
$GNGSA,A,3,29,07,20,06,09,11,,,,,,,1.97,1.08,1.64*18
$GNGSA,A,3,88,87,79,72,,,,,,,,,1.97,1.08,1.64*1D
$GPGSV,3,1,09,01,,,23,04,,,23,06,49,225,22,07,27,175,36*7D
$GPGSV,3,2,09,09,80,183,38,11,43,293,26,16,13,080,31,20,22,296,34*7D
$GPGSV,3,3,09,29,12,349,39*4C
$GLGSV,3,1,09,70,44,079,22,71,79,303,24,72,29,268,32,73,17,133,28*63
$GLGSV,3,2,09,79,21,016,26,87,48,290,19,88,14,345,27,,,,40*55
$GLGSV,3,3,09,,,,40*68
$GNGLL,5939.93120,N,01046.66172,E,124937.00,A,A*75
$GNRMC,124938.00,A,5939.93124,N,01046.66171,E,0.056,,260824,,,A*6D
$GNVTG,,T,,M,0.056,N,0.104,K,A*3B
$GNGGA,124938.00,5939.93124,N,01046.66171,E,1,10,1.08,102.9,M,38.7,M,,*46
$GNGSA,A,3,29,07,20,06,09,11,,,,,,,1.97,1.08,1.64*18
$GNGSA,A,3,88,87,79,72,,,,,,,,,1.97,1.08,1.64*1D
$GPGSV,3,1,09,01,,,23,04,,,25,06,49,225,22,07,27,175,37*7A
$GPGSV,3,2,09,09,80,183,39,11,43,293,25,16,13,080,29,20,22,296,33*71
$GPGSV,3,3,09,29,12,349,39*4C
$GLGSV,3,1,09,70,44,079,25,71,79,303,23,72,29,268,32,73,17,133,28*63
$GLGSV,3,2,09,79,21,016,29,87,48,290,17,88,14,345,26,,,,39*5B
$GLGSV,3,3,09,,,,39*66
$GNGLL,5939.93124,N,01046.66171,E,124938.00,A,A*7D
$GNRMC,124939.00,A,5939.93126,N,01046.66177,E,0.016,,260824,,,A*6C
$GNVTG,,T,,M,0.016,N,0.029,K,A*31
$GNGGA,124939.00,5939.93126,N,01046.66177,E,1,09,1.10,102.8,M,38.7,M,,*43
$GNGSA,A,3,29,07,20,06,09,11,,,,,,,2.07,1.10,1.76*18
$GNGSA,A,3,88,79,72,,,,,,,,,,2.07,1.10,1.76*12
$GPGSV,3,1,09,01,,,24,04,,,27,06,49,225,23,07,27,175,37*7E
$GPGSV,3,2,09,09,80,183,39,11,43,293,26,16,13,080,28,20,22,296,33*73
$GPGSV,3,3,09,29,12,349,39*4C
$GLGSV,3,1,09,70,44,079,26,71,79,303,21,72,29,268,32,73,17,133,29*63
$GLGSV,3,2,09,79,21,016,30,86,,,39,87,48,290,,88,14,345,27*5A
$GLGSV,3,3,09,,,,37*68
$GNGLL,5939.93126,N,01046.66177,E,124939.00,A,A*78
$GNRMC,124940.00,A,5939.93127,N,01046.66188,E,0.082,,260824,,,A*6E
$GNVTG,,T,,M,0.082,N,0.151,K,A*32
$GNGGA,124940.00,5939.93127,N,01046.66188,E,1,09,1.10,102.8,M,38.7,M,,*4C
$GNGSA,A,3,29,07,20,06,09,11,,,,,,,2.07,1.10,1.76*18
$GNGSA,A,3,88,79,72,,,,,,,,,,2.07,1.10,1.76*12
$GPGSV,3,1,09,01,,,26,04,,,27,06,49,225,25,07,27,175,38*75
$GPGSV,3,2,09,09,80,183,39,11,43,293,27,16,13,080,28,20,22,296,34*75
$GPGSV,3,3,09,29,12,349,39*4C
$GLGSV,3,1,09,70,44,079,25,71,79,303,21,72,29,268,32,73,17,133,29*60
$GLGSV,3,2,09,79,21,016,31,86,,,39,87,48,290,26,88,14,345,28*50
$GLGSV,3,3,09,,,,37*68
$GNGLL,5939.93127,N,01046.66188,E,124940.00,A,A*77
$GNRMC,124941.00,A,5939.93132,N,01046.66172,E,0.241,,260824,,,A*63
$GNVTG,,T,,M,0.241,N,0.446,K,A*3C
$GNGGA,124941.00,5939.93132,N,01046.66172,E,1,10,1.08,102.8,M,38.7,M,,*4D
$GNGSA,A,3,29,07,20,06,09,11,,,,,,,1.97,1.08,1.65*19
$GNGSA,A,3,88,87,79,72,,,,,,,,,1.97,1.08,1.65*1C
$GPGSV,3,1,09,01,,,27,04,,,28,06,49,225,25,07,27,175,38*7B
$GPGSV,3,2,09,09,80,183,41,11,43,293,27,16,13,080,25,20,22,296,33*70
$GPGSV,3,3,09,29,12,349,39*4C
$GLGSV,3,1,09,70,44,079,24,71,79,303,19,72,29,268,32,73,17,133,29*6A
$GLGSV,3,2,09,79,21,016,31,86,,,39,87,48,290,25,88,14,345,28*53
$GLGSV,3,3,09,,,,37*68
$GNGLL,5939.93132,N,01046.66172,E,124941.00,A,A*77
$GNRMC,124942.00,A,5939.93134,N,01046.66172,E,0.002,,260824,,,A*63
$GNVTG,,T,,M,0.002,N,0.004,K,A*3B
$GNGGA,124942.00,5939.93134,N,01046.66172,E,1,10,1.08,102.8,M,38.7,M,,*48
$GNGSA,A,3,29,07,20,06,09,11,,,,,,,1.97,1.08,1.65*19
$GNGSA,A,3,88,87,79,72,,,,,,,,,1.97,1.08,1.65*1C
$GPGSV,3,1,09,01,,,27,04,,,28,06,49,225,32,07,27,175,38*7D
$GPGSV,3,2,09,09,80,183,40,11,43,293,28,16,13,080,24,20,22,296,33*7F
$GPGSV,3,3,09,29,12,349,38*4D
$GLGSV,3,1,09,70,44,079,24,71,79,303,21,72,29,268,32,73,17,133,28*60
$GLGSV,3,2,09,79,21,016,31,86,,,39,87,48,290,23,88,14,345,28*55
$GLGSV,3,3,09,,,,37*68
$GNGLL,5939.93134,N,01046.66172,E,124942.00,A,A*72
$GNRMC,124943.00,A,5939.93134,N,01046.66183,E,0.050,,260824,,,A*6B
$GNVTG,,T,,M,0.050,N,0.092,K,A*33
$GNGGA,124943.00,5939.93134,N,01046.66183,E,1,10,1.08,102.8,M,38.7,M,,*47
$GNGSA,A,3,29,07,20,06,09,11,,,,,,,1.97,1.08,1.65*19
$GNGSA,A,3,88,87,79,72,,,,,,,,,1.97,1.08,1.65*1C
$GPGSV,3,1,09,01,,,28,04,,,28,06,49,225,34,07,27,175,34*78
$GPGSV,3,2,09,09,80,183,38,11,43,293,32,16,13,080,24,20,22,296,33*7B
$GPGSV,3,3,09,29,12,349,38*4D
$GLGSV,3,1,09,70,44,079,24,71,79,303,31,72,29,268,31,73,17,133,28*62
$GLGSV,3,2,09,79,21,016,33,86,,,39,87,48,290,22,88,14,345,28*56
$GLGSV,3,3,09,,,,37*68
$GNGLL,5939.93134,N,01046.66183,E,124943.00,A,A*7D
$GNRMC,124944.00,A,5939.93137,N,01046.66198,E,0.036,,260824,,,A*65
$GNVTG,,T,,M,0.036,N,0.067,K,A*39
$GNGGA,124944.00,5939.93137,N,01046.66198,E,1,10,1.08,102.7,M,38.7,M,,*46
$GNGSA,A,3,29,07,20,06,09,11,,,,,,,1.97,1.08,1.65*19
$GNGSA,A,3,88,87,79,72,,,,,,,,,1.97,1.08,1.65*1C
$GPGSV,3,1,09,01,,,29,04,,,29,06,49,225,36,07,27,175,35*7B
$GPGSV,3,2,09,09,80,183,39,11,43,293,34,16,13,080,24,20,22,296,33*7C
$GPGSV,3,3,09,29,12,349,39*4C
$GLGSV,3,1,09,70,44,079,24,71,79,303,32,72,29,268,33,73,17,133,28*63
$GLGSV,3,2,09,79,21,016,35,86,,,40,87,48,290,24,88,14,345,29*59
$GLGSV,3,3,09,,,,39*66
$GNGLL,5939.93137,N,01046.66198,E,124944.00,A,A*73
$GNRMC,124945.00,A,5939.93136,N,01046.66198,E,0.221,,260824,,,A*61
$GNVTG,,T,,M,0.221,N,0.410,K,A*39
$GNGGA,124945.00,5939.93136,N,01046.66198,E,1,10,1.08,102.7,M,38.7,M,,*46
$GNGSA,A,3,29,07,20,06,09,11,,,,,,,1.97,1.08,1.65*19
$GNGSA,A,3,88,87,79,72,,,,,,,,,1.97,1.08,1.65*1C
$GPGSV,3,1,10,01,,,29,04,,,32,06,49,225,31,07,27,175,36*7D
$GPGSV,3,2,10,09,80,183,41,11,43,293,34,16,13,080,23,20,22,296,33*7C
$GPGSV,3,3,10,29,12,349,39,49,22,187,33*77
$GLGSV,3,1,09,70,44,079,23,71,79,303,25,72,29,268,31,73,17,133,28*60
$GLGSV,3,2,09,79,21,016,35,86,,,40,87,48,290,27,88,14,345,30*52
$GLGSV,3,3,09,,,,39*66
$GNGLL,5939.93136,N,01046.66198,E,124945.00,A,A*73
$GNRMC,124946.00,A,5939.93136,N,01046.66188,E,0.365,,260824,,,A*62
$GNVTG,,T,,M,0.365,N,0.677,K,A*3B
$GNGGA,124946.00,5939.93136,N,01046.66188,E,1,10,1.08,102.8,M,38.7,M,,*4B
$GNGSA,A,3,29,07,20,06,09,11,,,,,,,1.97,1.08,1.65*19
$GNGSA,A,3,88,87,79,72,,,,,,,,,1.97,1.08,1.65*1C
$GPGSV,3,1,10,01,,,28,04,,,28,06,49,225,32,07,27,175,42*77
$GPGSV,3,2,10,09,80,183,39,11,43,293,38,16,13,080,29,20,22,296,36*70
$GPGSV,3,3,10,29,12,349,39,49,22,187,36*72
$GLGSV,3,1,09,70,44,079,23,71,79,303,35,72,29,268,26,73,17,133,16*6A
$GLGSV,3,2,09,79,21,016,39,86,,,32,87,48,290,31,88,14,345,29*54
$GLGSV,3,3,09,,,,34*6B
$GNGLL,5939.93136,N,01046.66188,E,124946.00,A,A*71
$GNRMC,124947.00,A,5939.93128,N,01046.66146,E,0.761,258.63,260824,,,A*7A
$GNVTG,258.63,T,,M,0.761,N,1.410,K,A*2D
$GNGGA,124947.00,5939.93128,N,01046.66146,E,1,10,1.08,102.7,M,38.7,M,,*48
$GNGSA,A,3,29,07,20,06,09,11,,,,,,,1.97,1.08,1.65*19
$GNGSA,A,3,88,87,79,72,,,,,,,,,1.97,1.08,1.65*1C
$GPGSV,3,1,10,01,,,26,04,,,33,06,49,225,40,07,27,175,42*76
$GPGSV,3,2,10,09,80,183,35,11,43,293,33,16,13,080,23,20,22,296,35*7E
$GPGSV,3,3,10,29,12,349,39,49,22,187,38*7C
$GLGSV,3,1,09,70,44,079,22,71,79,303,31,72,29,268,26,73,17,133,26*6C
$GLGSV,3,2,09,79,21,016,33,86,,,38,87,48,290,32,88,14,345,34*5B
$GLGSV,3,3,09,,,,28*66
$GNGLL,5939.93128,N,01046.66146,E,124947.00,A,A*7D
$GNRMC,124948.00,A,5939.93132,N,01046.66123,E,0.253,,260824,,,A*6D
$GNVTG,,T,,M,0.253,N,0.469,K,A*32
$GNGGA,124948.00,5939.93132,N,01046.66123,E,1,10,1.08,102.7,M,38.7,M,,*4F
$GNGSA,A,3,29,07,20,06,09,11,,,,,,,1.97,1.08,1.65*19
$GNGSA,A,3,88,87,79,72,,,,,,,,,1.97,1.08,1.65*1C
$GPGSV,3,1,10,01,,,25,04,,,36,06,49,225,37,07,27,175,37*72
$GPGSV,3,2,10,09,80,183,34,11,43,293,38,16,13,080,21,20,22,296,35*76
$GPGSV,3,3,10,29,12,349,37,49,22,187,33*79
$GLGSV,3,1,09,70,43,079,20,71,79,303,26,72,29,268,32,73,17,133,24*68
$GLGSV,3,2,09,79,21,016,27,86,,,38,87,48,290,28,88,14,345,21*51
$GLGSV,3,3,09,,,,38*67
$GNGLL,5939.93132,N,01046.66123,E,124948.00,A,A*7A
$GNRMC,124949.00,A,5939.93133,N,01046.66105,E,0.336,,260824,,,A*6B
$GNVTG,,T,,M,0.336,N,0.622,K,A*3D
$GNGGA,124949.00,5939.93133,N,01046.66105,E,1,10,1.10,102.3,M,38.7,M,,*46
$GNGSA,A,3,29,07,20,06,09,11,,,,,,,2.08,1.10,1.76*17
$GNGSA,A,3,88,87,79,72,,,,,,,,,2.08,1.10,1.76*12
$GPGSV,3,1,10,01,,,35,04,,,35,06,49,225,40,07,27,175,39*7E
$GPGSV,3,2,10,09,80,183,39,11,43,293,38,16,13,080,33,20,22,296,38*75
$GPGSV,3,3,10,29,12,349,37,49,22,187,40*7D
$GLGSV,3,1,09,70,43,079,20,71,80,305,31,72,29,268,33,73,17,133,21*6A
$GLGSV,3,2,09,79,21,016,34,86,32,222,41,87,48,290,32,88,14,345,30*65
$GLGSV,3,3,09,,,,38*67
$GNGLL,5939.93133,N,01046.66105,E,124949.00,A,A*7E
$GNRMC,124950.00,A,5939.93131,N,01046.66090,E,0.121,,260824,,,A*68
$GNVTG,,T,,M,0.121,N,0.224,K,A*3B
$GNGGA,124950.00,5939.93131,N,01046.66090,E,1,10,1.08,102.2,M,38.7,M,,*49
$GNGSA,A,3,29,07,20,06,09,11,,,,,,,1.97,1.08,1.65*19
$GNGSA,A,3,88,87,79,72,,,,,,,,,1.97,1.08,1.65*1C
$GPGSV,3,1,10,01,,,28,04,,,33,06,49,225,38,07,27,175,38*7A
$GPGSV,3,2,10,09,80,183,34,11,43,293,39,16,13,080,32,20,22,296,39*79
$GPGSV,3,3,10,29,12,349,37,49,22,187,38*72
$GLGSV,3,1,09,70,43,079,22,71,80,305,25,72,30,269,31,73,17,133,18*6C
$GLGSV,3,2,09,79,21,016,32,86,32,222,41,87,48,290,26,88,14,345,31*67
$GLGSV,3,3,09,,,,37*68
$GNGLL,5939.93131,N,01046.66090,E,124950.00,A,A*79
$GNRMC,124951.00,A,5939.93130,N,01046.66081,E,0.279,,260824,,,A*66
$GNVTG,,T,,M,0.279,N,0.517,K,A*32
$GNGGA,124951.00,5939.93130,N,01046.66081,E,1,10,1.08,102.2,M,38.7,M,,*49
$GNGSA,A,3,29,07,20,06,09,11,,,,,,,1.97,1.08,1.65*19
$GNGSA,A,3,88,87,79,72,,,,,,,,,1.97,1.08,1.65*1C
$GPGSV,3,1,10,01,,,31,04,,,30,06,49,225,36,07,27,175,38*7F
$GPGSV,3,2,10,09,80,183,31,11,43,293,31,16,13,080,31,20,22,296,36*78
$GPGSV,3,3,10,29,12,349,35,49,22,187,38*70
$GLGSV,3,1,09,70,43,079,22,71,80,305,31,72,30,269,31,73,17,133,16*67
$GLGSV,3,2,09,79,21,016,31,86,32,222,39,87,48,290,37,88,14,345,32*68
$GLGSV,3,3,09,,,,40*68
$GNGLL,5939.93130,N,01046.66081,E,124951.00,A,A*79
$GNRMC,124952.00,A,5939.93131,N,01046.66103,E,0.096,,260824,,,A*6C
$GNVTG,,T,,M,0.096,N,0.178,K,A*3C
$GNGGA,124952.00,5939.93131,N,01046.66103,E,1,10,1.08,102.4,M,38.7,M,,*46
$GNGSA,A,3,29,07,20,06,09,11,,,,,,,1.97,1.08,1.65*19
$GNGSA,A,3,88,87,79,72,,,,,,,,,1.97,1.08,1.65*1C
$GPGSV,3,1,10,01,,,32,04,,,30,06,49,225,39,07,27,175,38*73
$GPGSV,3,2,10,09,80,183,28,11,43,293,38,16,13,080,24,20,22,296,36*7D
$GPGSV,3,3,10,29,12,349,33,49,22,187,37*79
$GLGSV,3,1,09,70,43,079,22,71,80,305,30,72,30,269,36,73,17,133,19*6E
$GLGSV,3,2,09,79,21,016,33,86,32,222,37,87,48,290,38,88,14,345,33*6A
$GLGSV,3,3,09,,,,42*6A
$GNGLL,5939.93131,N,01046.66103,E,124952.00,A,A*70
$GNRMC,124953.00,A,5939.93133,N,01046.66119,E,0.079,,260824,,,A*65
$GNVTG,,T,,M,0.079,N,0.146,K,A*30
$GNGGA,124953.00,5939.93133,N,01046.66119,E,1,10,1.08,102.6,M,38.7,M,,*4C
$GNGSA,A,3,29,07,20,06,09,11,,,,,,,1.97,1.08,1.65*19
$GNGSA,A,3,88,87,79,72,,,,,,,,,1.97,1.08,1.65*1C
$GPGSV,3,1,10,01,,,32,04,,,27,06,49,225,39,07,27,175,38*75
$GPGSV,3,2,10,09,80,183,27,11,43,293,38,16,13,080,24,20,22,296,37*73
$GPGSV,3,3,10,29,12,349,35,49,22,187,37*7F
$GLGSV,3,1,09,70,43,079,23,71,80,305,30,72,30,269,37,73,17,133,22*66
$GLGSV,3,2,09,79,21,016,33,86,32,222,37,87,48,289,39,88,14,345,33*63
$GLGSV,3,3,09,,,,42*6A
$GNGLL,5939.93133,N,01046.66119,E,124953.00,A,A*78
$GNRMC,124954.00,A,5939.93136,N,01046.66131,E,0.146,,260824,,,A*60
$GNVTG,,T,,M,0.146,N,0.270,K,A*3B
$GNGGA,124954.00,5939.93136,N,01046.66131,E,1,10,1.08,102.8,M,38.7,M,,*4A
$GNGSA,A,3,29,07,20,06,09,11,,,,,,,1.97,1.08,1.65*19
$GNGSA,A,3,88,87,79,72,,,,,,,,,1.97,1.08,1.65*1C
$GPGSV,3,1,10,01,,,32,04,,,25,06,49,225,40,07,27,175,37*76
$GPGSV,3,2,10,09,80,183,28,11,43,293,39,16,13,080,25,20,22,296,37*7C
$GPGSV,3,3,10,29,12,349,35,49,22,187,37*7F
$GLGSV,3,1,09,70,43,079,25,71,80,305,30,72,30,269,36,73,17,133,23*60
$GLGSV,3,2,09,79,21,016,33,86,32,222,39,87,48,289,39,88,14,345,33*6D
$GLGSV,3,3,09,,,,41*69
$GNGLL,5939.93136,N,01046.66131,E,124954.00,A,A*70
$GNRMC,124955.00,A,5939.93140,N,01046.66131,E,0.066,,260824,,,A*63
$GNVTG,,T,,M,0.066,N,0.123,K,A*3D
$GNGGA,124955.00,5939.93140,N,01046.66131,E,1,10,1.08,103.0,M,38.7,M,,*43
$GNGSA,A,3,29,07,20,06,09,11,,,,,,,1.97,1.08,1.65*19
$GNGSA,A,3,88,87,79,72,,,,,,,,,1.97,1.08,1.65*1C
$GPGSV,3,1,10,01,,,32,04,,,23,06,49,225,40,07,27,175,36*71
$GPGSV,3,2,10,09,80,183,28,11,43,293,40,16,13,080,27,20,22,296,37*70
$GPGSV,3,3,10,29,12,349,36,49,22,187,36*7D
$GLGSV,3,1,09,70,43,079,25,71,80,305,31,72,30,269,35,73,17,133,21*60
$GLGSV,3,2,09,79,21,016,33,86,32,222,39,87,48,289,39,88,14,345,32*6C
$GLGSV,3,3,09,,,,41*69
$GNGLL,5939.93140,N,01046.66131,E,124955.00,A,A*70
$GNRMC,124956.00,A,5939.93140,N,01046.66140,E,0.057,,260824,,,A*64
$GNVTG,,T,,M,0.057,N,0.105,K,A*3B
$GNGGA,124956.00,5939.93140,N,01046.66140,E,1,10,1.08,103.1,M,38.7,M,,*47
$GNGSA,A,3,29,07,20,06,09,11,,,,,,,1.97,1.08,1.65*19
$GNGSA,A,3,88,87,79,72,,,,,,,,,1.97,1.08,1.65*1C
$GPGSV,3,1,10,01,,,32,04,,,20,06,49,225,40,07,27,175,36*72
$GPGSV,3,2,10,09,80,183,28,11,43,293,40,16,13,080,28,20,22,296,36*7E
$GPGSV,3,3,10,29,12,349,36,49,22,187,35*7E
$GLGSV,3,1,09,70,43,079,26,71,80,305,32,72,30,269,35,73,17,133,21*60
$GLGSV,3,2,09,79,20,016,33,86,32,222,39,87,48,289,38,88,14,345,31*6F
$GLGSV,3,3,09,,,,42*6A
$GNGLL,5939.93140,N,01046.66140,E,124956.00,A,A*75
$GNRMC,124957.00,A,5939.93140,N,01046.66152,E,0.079,,260824,,,A*6A
$GNVTG,,T,,M,0.079,N,0.147,K,A*31
$GNGGA,124957.00,5939.93140,N,01046.66152,E,1,10,1.08,103.1,M,38.7,M,,*45
$GNGSA,A,3,29,07,20,06,09,11,,,,,,,1.97,1.08,1.65*19
$GNGSA,A,3,88,87,79,72,,,,,,,,,1.97,1.08,1.65*1C
$GPGSV,3,1,10,01,,,32,04,,,19,06,49,225,40,07,27,175,36*78
$GPGSV,3,2,10,09,80,183,27,11,43,293,40,16,13,080,28,20,22,296,37*70
$GPGSV,3,3,10,29,12,349,36,49,22,187,34*7F
$GLGSV,3,1,09,70,43,079,26,71,80,305,31,72,30,269,35,73,17,133,24*66
$GLGSV,3,2,09,79,20,016,33,86,32,222,38,87,48,289,39,88,15,345,32*6D
$GLGSV,3,3,09,,,,42*6A
$GNGLL,5939.93140,N,01046.66152,E,124957.00,A,A*77
$GNRMC,124958.00,A,5939.93142,N,01046.66160,E,0.040,,260824,,,A*6C
$GNVTG,,T,,M,0.040,N,0.075,K,A*3B
$GNGGA,124958.00,5939.93142,N,01046.66160,E,1,10,1.08,103.2,M,38.7,M,,*4A
$GNGSA,A,3,29,07,20,06,09,11,,,,,,,1.97,1.08,1.65*19
$GNGSA,A,3,88,87,79,72,,,,,,,,,1.97,1.08,1.65*1C
$GPGSV,3,1,10,01,,,32,04,,,20,06,49,225,41,07,27,175,36*73
$GPGSV,3,2,10,09,80,183,30,11,43,293,40,16,13,080,27,20,22,296,37*79
$GPGSV,3,3,10,29,12,349,35,49,22,187,35*7D
$GLGSV,3,1,09,70,43,079,26,71,80,305,32,72,30,269,35,73,17,133,22*63
$GLGSV,3,2,09,79,20,016,33,86,32,222,40,87,48,289,38,88,15,345,34*65
$GLGSV,3,3,09,,,,41*69
$GNGLL,5939.93142,N,01046.66160,E,124958.00,A,A*7B
$GNRMC,124959.00,A,5939.93143,N,01046.66173,E,0.100,,260824,,,A*6B
$GNVTG,,T,,M,0.100,N,0.186,K,A*33
$GNGGA,124959.00,5939.93143,N,01046.66173,E,1,10,1.08,103.4,M,38.7,M,,*4E
$GNGSA,A,3,29,07,20,06,09,11,,,,,,,1.97,1.08,1.65*19
$GNGSA,A,3,88,87,79,72,,,,,,,,,1.97,1.08,1.65*1C
$GPGSV,3,1,10,01,,,33,04,,,24,06,49,225,41,07,27,175,37*77
$GPGSV,3,2,10,09,80,183,34,11,43,293,40,16,13,080,28,20,22,296,37*72
$GPGSV,3,3,10,29,12,349,35,49,22,187,35*7D
$GLGSV,3,1,09,70,43,079,27,71,80,305,32,72,30,269,35,73,17,133,19*6A
$GLGSV,3,2,09,79,20,016,33,86,32,222,40,87,48,289,38,88,15,345,35*64
$GLGSV,3,3,09,,,,42*6A
$GNGLL,5939.93143,N,01046.66173,E,124959.00,A,A*79
$GNRMC,125000.00,A,5939.93143,N,01046.66189,E,0.033,,260824,,,A*6B
$GNVTG,,T,,M,0.033,N,0.061,K,A*3A
$GNGGA,125000.00,5939.93143,N,01046.66189,E,1,10,1.08,103.5,M,38.7,M,,*4E
$GNGSA,A,3,29,07,20,06,09,11,,,,,,,1.97,1.08,1.65*19
$GNGSA,A,3,88,87,79,72,,,,,,,,,1.97,1.08,1.65*1C
$GPGSV,3,1,10,01,,,32,04,,,24,06,49,225,41,07,27,175,37*76
$GPGSV,3,2,10,09,80,183,30,11,43,293,40,16,13,080,28,20,22,296,37*76
$GPGSV,3,3,10,29,12,349,35,49,22,187,35*7D
$GLGSV,3,1,09,70,43,079,26,71,80,305,32,72,30,269,35,73,17,133,17*65
$GLGSV,3,2,09,79,20,016,33,86,32,222,39,87,48,289,38,88,15,345,33*6C
$GLGSV,3,3,09,,,,42*6A
$GNGLL,5939.93143,N,01046.66189,E,125000.00,A,A*78
$GNRMC,125001.00,A,5939.93143,N,01046.66186,E,0.116,,260824,,,A*63
$GNVTG,,T,,M,0.116,N,0.215,K,A*3D
$GNGGA,125001.00,5939.93143,N,01046.66186,E,1,10,1.08,103.6,M,38.7,M,,*43
$GNGSA,A,3,29,07,20,06,09,11,,,,,,,1.97,1.08,1.65*19
$GNGSA,A,3,88,87,79,72,,,,,,,,,1.97,1.08,1.65*1C
$GPGSV,3,1,10,01,,,30,04,,,23,06,49,225,37,07,27,175,33*76
$GPGSV,3,2,10,09,80,183,27,11,43,293,43,16,13,080,28,20,22,296,39*7D
$GPGSV,3,3,10,29,12,349,38,49,22,187,34*71
$GLGSV,3,1,09,70,43,079,26,71,80,305,31,72,30,269,33,73,17,133,20*64
$GLGSV,3,2,09,79,20,016,34,86,32,222,41,87,48,289,41,88,15,345,30*69
$GLGSV,3,3,09,,,,39*66
$GNGLL,5939.93143,N,01046.66186,E,125001.00,A,A*76
$GNRMC,125002.00,A,5939.93144,N,01046.66189,E,0.124,,260824,,,A*69
$GNVTG,,T,,M,0.124,N,0.231,K,A*3A
$GNGGA,125002.00,5939.93144,N,01046.66189,E,1,10,1.08,103.8,M,38.7,M,,*46
$GNGSA,A,3,29,07,20,06,09,11,,,,,,,1.97,1.08,1.65*19
$GNGSA,A,3,88,87,79,72,,,,,,,,,1.97,1.08,1.65*1C
$GPGSV,3,1,10,01,,,30,04,,,26,06,49,225,36,07,27,175,33*72
$GPGSV,3,2,10,09,80,183,28,11,43,293,41,16,13,080,28,20,22,296,39*70
$GPGSV,3,3,10,29,12,349,38,49,22,187,35*70
$GLGSV,3,1,09,70,43,079,22,71,80,305,31,72,30,269,35,73,17,133,21*67
$GLGSV,3,2,09,79,20,016,36,86,32,222,39,87,48,289,41,88,15,345,34*60
$GLGSV,3,3,09,,,,41*69
$GNGLL,5939.93144,N,01046.66189,E,125002.00,A,A*7D
$GNRMC,125003.00,A,5939.93145,N,01046.66191,E,0.060,,260824,,,A*61
$GNVTG,,T,,M,0.060,N,0.112,K,A*39
$GNGGA,125003.00,5939.93145,N,01046.66191,E,1,09,1.23,103.9,M,38.7,M,,*4F
$GNGSA,A,3,29,07,20,06,11,,,,,,,,2.71,1.23,2.41*17
$GNGSA,A,3,88,87,79,72,,,,,,,,,2.71,1.23,2.41*1B
$GPGSV,3,1,10,01,,,30,04,,,28,06,49,225,39,07,27,175,33*73
$GPGSV,3,2,10,09,80,183,,11,43,293,41,16,13,080,30,20,22,296,38*72
$GPGSV,3,3,10,29,12,349,37,49,22,187,36*7C
$GLGSV,3,1,09,70,43,079,21,71,80,305,29,72,30,269,35,73,17,133,18*67
$GLGSV,3,2,09,79,20,016,35,86,32,222,38,87,48,289,41,88,15,345,34*62
$GLGSV,3,3,09,,,,41*69
$GNGLL,5939.93145,N,01046.66191,E,125003.00,A,A*74
$GNRMC,125004.00,A,5939.93144,N,01046.66192,E,0.032,,260824,,,A*63
$GNVTG,,T,,M,0.032,N,0.060,K,A*3A
$GNGGA,125004.00,5939.93144,N,01046.66192,E,1,09,1.23,104.0,M,38.7,M,,*44
$GNGSA,A,3,29,07,20,06,11,,,,,,,,2.71,1.23,2.41*17
$GNGSA,A,3,88,87,79,72,,,,,,,,,2.71,1.23,2.41*1B
$GPGSV,3,1,10,01,,,35,04,,,33,06,49,225,41,07,27,175,37*77
$GPGSV,3,2,10,09,80,183,,11,43,293,43,16,13,080,35,20,22,296,41*7B
$GPGSV,3,3,10,29,12,349,41,49,22,187,40*7C
$GLGSV,3,1,09,70,43,079,21,71,80,305,25,72,30,269,33,73,17,133,14*61
$GLGSV,3,2,09,79,20,016,33,86,32,222,36,87,48,289,40,88,15,345,34*6B
$GLGSV,3,3,09,,,,39*66
$GNGLL,5939.93144,N,01046.66192,E,125004.00,A,A*71
$GNRMC,125005.00,A,5939.93140,N,01046.66177,E,0.447,,260824,,,A*6B
$GNVTG,,T,,M,0.447,N,0.828,K,A*38
$GNGGA,125005.00,5939.93140,N,01046.66177,E,1,09,1.23,103.8,M,38.7,M,,*45
$GNGSA,A,3,29,07,20,06,11,,,,,,,,2.71,1.23,2.42*14
$GNGSA,A,3,88,87,79,72,,,,,,,,,2.71,1.23,2.42*18
$GPGSV,3,1,10,01,,,35,04,,,34,06,49,225,44,07,27,175,40*75
$GPGSV,3,2,10,09,80,183,,11,43,293,46,16,13,080,30,20,22,296,39*74
$GPGSV,3,3,10,29,12,349,39,49,22,187,40*73
$GLGSV,3,1,09,70,43,079,23,71,80,305,35,72,30,269,34,73,17,133,*60
$GLGSV,3,2,09,79,20,016,35,86,32,222,39,87,48,289,38,88,15,345,34*6D
$GLGSV,3,3,09,,,,39*66
$GNGLL,5939.93140,N,01046.66177,E,125005.00,A,A*7F
$GNRMC,125006.00,A,5939.93137,N,01046.66161,E,0.416,,260824,,,A*6B
$GNVTG,,T,,M,0.416,N,0.771,K,A*3F
$GNGGA,125006.00,5939.93137,N,01046.66161,E,1,10,1.08,104.0,M,38.7,M,,*4F
$GNGSA,A,3,29,07,20,06,09,11,,,,,,,1.98,1.08,1.65*16
$GNGSA,A,3,88,87,79,72,,,,,,,,,1.98,1.08,1.65*13
$GPGSV,3,1,10,01,,,34,04,,,41,06,49,225,41,07,27,175,43*70
$GPGSV,3,2,10,09,80,183,35,11,43,293,39,16,13,080,35,20,22,296,43*72
$GPGSV,3,3,10,29,12,349,39,49,22,187,40*73
$GLGSV,3,1,09,70,43,079,23,71,80,305,30,72,30,269,33,73,17,133,22*62
$GLGSV,3,2,09,79,20,016,35,86,32,222,38,87,48,289,35,88,15,345,35*60
$GLGSV,3,3,09,,,,38*67
$GNGLL,5939.93137,N,01046.66161,E,125006.00,A,A*7B
$GNRMC,125007.00,A,5939.93129,N,01046.66159,E,0.162,,260824,,,A*68
$GNVTG,,T,,M,0.162,N,0.300,K,A*3B
$GNGGA,125007.00,5939.93129,N,01046.66159,E,1,10,1.08,104.0,M,38.7,M,,*4A
$GNGSA,A,3,29,07,20,06,09,11,,,,,,,1.98,1.08,1.66*15
$GNGSA,A,3,88,87,79,72,,,,,,,,,1.98,1.08,1.66*10
$GPGSV,3,1,10,01,,,33,04,,,34,06,49,225,38,07,27,175,41*79
$GPGSV,3,2,10,09,80,182,35,11,43,293,41,16,13,080,34,20,22,296,41*7F
$GPGSV,3,3,10,29,12,349,42,49,22,187,41*7E
$GLGSV,3,1,09,70,43,079,20,71,80,305,30,72,30,269,33,73,17,133,21*62
$GLGSV,3,2,09,79,20,016,35,86,32,222,40,87,48,289,35,88,15,345,33*69
$GLGSV,3,3,09,,,,37*68
$GNGLL,5939.93129,N,01046.66159,E,125007.00,A,A*7E
$GNRMC,125008.00,A,5939.93127,N,01046.66161,E,0.083,,260824,,,A*6C
$GNVTG,,T,,M,0.083,N,0.154,K,A*36
$GNGGA,125008.00,5939.93127,N,01046.66161,E,1,10,1.08,104.0,M,38.7,M,,*40
$GNGSA,A,3,29,07,20,06,09,11,,,,,,,1.98,1.08,1.66*15
$GNGSA,A,3,88,87,79,72,,,,,,,,,1.98,1.08,1.66*10
$GPGSV,3,1,10,01,,,32,04,,,34,06,49,225,34,07,27,175,38*7A
$GPGSV,3,2,10,09,80,182,28,11,43,292,40,16,13,080,34,20,22,296,41*73
$GPGSV,3,3,10,29,12,349,42,49,22,187,38*70
$GLGSV,3,1,09,70,43,079,20,71,80,305,29,72,30,269,34,73,17,133,18*67
$GLGSV,3,2,09,79,20,016,35,86,32,222,40,87,48,289,35,88,15,345,32*68
$GLGSV,3,3,09,,,,38*67
$GNGLL,5939.93127,N,01046.66161,E,125008.00,A,A*74
$GNRMC,125009.00,A,5939.93126,N,01046.66162,E,0.058,,260824,,,A*69
$GNVTG,,T,,M,0.058,N,0.107,K,A*36
$GNGGA,125009.00,5939.93126,N,01046.66162,E,1,11,1.02,104.1,M,38.7,M,,*49
$GNGSA,A,3,29,07,20,06,09,11,,,,,,,1.88,1.02,1.58*13
$GNGSA,A,3,88,87,79,72,86,,,,,,,,1.88,1.02,1.58*18
$GPGSV,3,1,10,01,,,37,04,,,34,06,49,225,38,07,27,175,39*72
$GPGSV,3,2,10,09,80,182,25,11,43,292,36,16,13,080,34,20,22,296,40*7E
$GPGSV,3,3,10,29,12,349,39,49,22,187,41*72
$GLGSV,3,1,09,70,43,079,21,71,80,305,26,72,30,269,34,73,17,133,17*66
$GLGSV,3,2,09,79,20,016,35,86,32,222,39,87,48,289,34,88,15,345,34*61
$GLGSV,3,3,09,,,,37*68
$GNGLL,5939.93126,N,01046.66162,E,125009.00,A,A*77
$GNRMC,125010.00,A,5939.93118,N,01046.66148,E,0.203,,260824,,,A*68
$GNVTG,,T,,M,0.203,N,0.376,K,A*3E
$GNGGA,125010.00,5939.93118,N,01046.66148,E,1,11,1.02,103.9,M,38.7,M,,*4B
$GNGSA,A,3,29,07,20,06,09,11,,,,,,,1.88,1.02,1.58*13
$GNGSA,A,3,88,87,79,72,86,,,,,,,,1.88,1.02,1.58*18
$GPGSV,3,1,10,01,,,32,04,,,38,06,49,225,39,07,27,175,37*74
$GPGSV,3,2,10,09,80,182,39,11,43,292,35,16,13,079,30,20,22,296,39*7C
$GPGSV,3,3,10,29,12,349,39,49,22,187,36*72
$GLGSV,3,1,09,70,43,079,22,71,80,305,26,72,30,269,33,73,17,133,17*62
$GLGSV,3,2,09,79,20,016,31,86,32,222,40,87,48,289,34,88,15,345,34*6B
$GLGSV,3,3,09,,,,39*66
$GNGLL,5939.93118,N,01046.66148,E,125010.00,A,A*7A
$GNRMC,125011.00,A,5939.93114,N,01046.66142,E,0.029,,260824,,,A*65
$GNVTG,,T,,M,0.029,N,0.055,K,A*36
$GNGGA,125011.00,5939.93114,N,01046.66142,E,1,11,1.02,103.7,M,38.7,M,,*42
$GNGSA,A,3,29,07,20,06,09,11,,,,,,,1.89,1.02,1.58*12
$GNGSA,A,3,88,87,79,72,86,,,,,,,,1.89,1.02,1.58*19
$GPGSV,3,1,10,01,,,31,04,,,30,06,49,225,35,07,27,175,40*73
$GPGSV,3,2,10,09,80,182,38,11,43,292,29,16,13,079,28,20,22,296,38*78
$GPGSV,3,3,10,29,12,349,38,49,22,187,40*72
$GLGSV,3,1,09,70,43,079,24,71,80,305,24,72,30,269,32,73,17,133,18*68
$GLGSV,3,2,09,79,20,016,30,86,32,222,38,87,48,289,35,88,15,345,35*65
$GLGSV,3,3,09,,,,39*66
$GNGLL,5939.93114,N,01046.66142,E,125011.00,A,A*7D
$GNRMC,125012.00,A,5939.93112,N,01046.66130,E,0.029,,260824,,,A*65
$GNVTG,,T,,M,0.029,N,0.054,K,A*37
$GNGGA,125012.00,5939.93112,N,01046.66130,E,1,11,1.02,103.5,M,38.7,M,,*40
$GNGSA,A,3,29,07,20,06,09,11,,,,,,,1.89,1.02,1.58*12
$GNGSA,A,3,88,87,79,72,86,,,,,,,,1.89,1.02,1.58*19
$GPGSV,3,1,10,01,,,31,04,,,33,06,49,225,35,07,27,175,40*70
$GPGSV,3,2,10,09,80,182,39,11,43,292,28,16,13,079,28,20,22,296,38*78
$GPGSV,3,3,10,29,12,349,37,49,22,187,40*7D
$GLGSV,3,1,09,70,43,079,25,71,80,305,23,72,30,269,32,73,17,133,19*6F
$GLGSV,3,2,09,79,20,016,31,86,32,222,38,87,48,289,36,88,15,345,35*67
$GLGSV,3,3,09,,,,39*66
$GNGLL,5939.93112,N,01046.66130,E,125012.00,A,A*7D
$GNRMC,125013.00,A,5939.93108,N,01046.66114,E,0.079,,260824,,,A*6C
$GNVTG,,T,,M,0.079,N,0.147,K,A*31
$GNGGA,125013.00,5939.93108,N,01046.66114,E,1,11,1.06,103.1,M,38.7,M,,*4C
$GNGSA,A,3,29,07,20,06,09,11,,,,,,,1.96,1.06,1.65*16
$GNGSA,A,3,88,87,79,72,86,,,,,,,,1.96,1.06,1.65*1D
$GPGSV,3,1,10,01,,,29,04,,,34,06,49,225,35,07,27,175,39*70
$GPGSV,3,2,10,09,80,182,39,11,43,292,28,16,13,079,27,20,22,296,38*77
$GPGSV,3,3,10,29,12,349,39,49,22,187,39*7D
$GLGSV,3,1,09,70,43,079,26,71,80,305,23,72,30,269,32,73,17,133,19*6C
$GLGSV,3,2,09,79,20,016,32,86,32,222,39,87,48,289,35,88,15,345,35*66
$GLGSV,3,3,09,,,,39*66
$GNGLL,5939.93108,N,01046.66114,E,125013.00,A,A*71
$GNRMC,125014.00,A,5939.93099,N,01046.66080,E,0.161,,260824,,,A*66
$GNVTG,,T,,M,0.161,N,0.298,K,A*38
$GNGGA,125014.00,5939.93099,N,01046.66080,E,1,11,1.06,102.4,M,38.7,M,,*4A
$GNGSA,A,3,29,07,20,06,09,11,,,,,,,1.96,1.06,1.65*16
$GNGSA,A,3,88,87,79,72,86,,,,,,,,1.96,1.06,1.65*1D
$GPGSV,3,1,10,01,,,28,04,,,34,06,49,225,34,07,27,175,39*70
$GPGSV,3,2,10,09,80,182,41,11,43,292,29,16,13,079,25,20,23,296,38*7A
$GPGSV,3,3,10,29,12,349,39,49,22,187,38*7C
$GLGSV,3,1,09,70,43,079,26,71,80,305,23,72,30,269,32,73,17,133,18*6D
$GLGSV,3,2,09,79,20,016,33,86,32,222,40,87,48,289,35,88,15,345,35*69
$GLGSV,3,3,09,,,,39*66
$GNGLL,5939.93099,N,01046.66080,E,125014.00,A,A*73
$GNRMC,125015.00,A,5939.93093,N,01046.66068,E,0.134,,260824,,,A*6B
$GNVTG,,T,,M,0.134,N,0.249,K,A*34
$GNGGA,125015.00,5939.93093,N,01046.66068,E,1,11,1.06,102.1,M,38.7,M,,*42
$GNGSA,A,3,29,07,20,06,09,11,,,,,,,1.96,1.06,1.65*16
$GNGSA,A,3,88,87,79,72,86,,,,,,,,1.96,1.06,1.65*1D
$GPGSV,3,1,10,01,,,34,04,,,33,06,49,225,33,07,27,175,39*7D
$GPGSV,3,2,10,09,80,182,39,11,43,292,27,16,13,079,22,20,23,296,37*73
$GPGSV,3,3,10,29,12,349,38,49,22,187,40*72
$GLGSV,3,1,09,70,43,079,25,71,80,305,24,72,30,269,32,73,17,133,18*69
$GLGSV,3,2,09,79,20,016,32,86,32,222,39,87,48,289,36,88,15,345,36*66
$GLGSV,3,3,09,,,,39*66
$GNGLL,5939.93093,N,01046.66068,E,125015.00,A,A*7E
$GNRMC,125016.00,A,5939.93090,N,01046.66061,E,0.070,,260824,,,A*63
$GNVTG,,T,,M,0.070,N,0.129,K,A*30
$GNGGA,125016.00,5939.93090,N,01046.66061,E,1,11,1.06,101.9,M,38.7,M,,*40
$GNGSA,A,3,29,07,20,06,09,11,,,,,,,1.96,1.06,1.65*16
$GNGSA,A,3,88,87,79,72,86,,,,,,,,1.96,1.06,1.65*1D
$GPGSV,3,1,10,01,,,36,04,,,33,06,49,225,33,07,27,175,40*71
$GPGSV,3,2,10,09,80,182,38,11,43,292,27,16,13,079,23,20,23,296,37*73
$GPGSV,3,3,10,29,12,349,37,49,22,187,41*7C
$GLGSV,3,1,09,70,43,079,25,71,80,305,22,72,30,269,32,73,17,133,19*6E
$GLGSV,3,2,09,79,20,016,31,86,32,222,38,87,48,289,36,88,15,345,36*64
$GLGSV,3,3,09,,,,39*66
$GNGLL,5939.93090,N,01046.66061,E,125016.00,A,A*77
$GNRMC,125017.00,A,5939.93085,N,01046.66044,E,0.016,,260824,,,A*61
$GNVTG,,T,,M,0.016,N,0.029,K,A*31
$GNGGA,125017.00,5939.93085,N,01046.66044,E,1,11,1.06,101.5,M,38.7,M,,*4E
$GNGSA,A,3,29,07,20,06,09,11,,,,,,,1.96,1.06,1.65*16
$GNGSA,A,3,88,87,79,72,86,,,,,,,,1.96,1.06,1.65*1D
$GPGSV,3,1,10,01,,,35,04,,,31,06,49,225,28,07,27,175,38*75
$GPGSV,3,2,10,09,80,182,38,11,43,292,22,16,13,079,19,20,23,296,36*7E
$GPGSV,3,3,10,29,12,349,35,49,22,187,38*70
$GLGSV,3,1,09,70,43,079,24,71,80,305,24,72,30,269,31,73,17,133,17*64
$GLGSV,3,2,09,79,20,016,29,86,32,222,39,87,48,289,37,88,15,345,36*6D
$GLGSV,3,3,09,,,,39*66
$GNGLL,5939.93085,N,01046.66044,E,125017.00,A,A*75
$GNRMC,125018.00,A,5939.93080,N,01046.66028,E,0.089,,260824,,,A*67
$GNVTG,,T,,M,0.089,N,0.165,K,A*3E
$GNGGA,125018.00,5939.93080,N,01046.66028,E,1,11,1.06,100.9,M,38.7,M,,*43
$GNGSA,A,3,29,07,20,06,09,11,,,,,,,1.96,1.06,1.65*16
$GNGSA,A,3,88,87,79,72,86,,,,,,,,1.96,1.06,1.65*1D
$GPGSV,3,1,10,01,,,33,04,,,29,06,49,225,27,07,27,175,38*75
$GPGSV,3,2,10,09,80,182,39,11,43,292,23,16,13,079,20,20,23,296,35*77
$GPGSV,3,3,10,29,12,349,36,49,22,187,37*7C
$GLGSV,3,1,09,70,43,079,25,71,80,305,26,72,30,269,31,73,17,133,17*67
$GLGSV,3,2,09,79,20,016,31,86,32,222,39,87,48,289,35,88,15,345,36*66
$GLGSV,3,3,09,,,,39*66
$GNGLL,5939.93080,N,01046.66028,E,125018.00,A,A*75
$GNRMC,125019.00,A,5939.93076,N,01046.66015,E,0.025,,260824,,,A*67
$GNVTG,,T,,M,0.025,N,0.047,K,A*39
$GNGGA,125019.00,5939.93076,N,01046.66015,E,1,11,1.06,100.6,M,38.7,M,,*4A
$GNGSA,A,3,29,07,20,06,09,11,,,,,,,1.96,1.06,1.65*16
$GNGSA,A,3,88,87,79,72,86,,,,,,,,1.96,1.06,1.65*1D
$GPGSV,3,1,10,01,,,32,04,,,29,06,49,225,28,07,27,175,37*74
$GPGSV,3,2,10,09,80,182,39,11,43,292,25,16,13,079,20,20,23,296,35*71
$GPGSV,3,3,10,29,12,349,36,49,22,187,37*7C
$GLGSV,3,1,09,70,43,079,25,71,80,305,26,72,30,269,31,73,17,133,17*67
$GLGSV,3,2,09,79,20,016,30,86,32,222,39,87,48,289,36,88,15,345,36*64
$GLGSV,3,3,09,,,,39*66
$GNGLL,5939.93076,N,01046.66015,E,125019.00,A,A*73
$GNRMC,125020.00,A,5939.93074,N,01046.66009,E,0.083,,260824,,,A*6E
$GNVTG,,T,,M,0.083,N,0.153,K,A*31
$GNGGA,125020.00,5939.93074,N,01046.66009,E,1,11,1.02,100.3,M,38.7,M,,*4E
$GNGSA,A,3,29,07,20,06,09,11,,,,,,,1.89,1.02,1.59*13
$GNGSA,A,3,88,87,79,72,86,,,,,,,,1.89,1.02,1.59*18
$GPGSV,3,1,10,01,,,33,04,,,29,06,49,225,29,07,27,175,38*7B
$GPGSV,3,2,10,09,80,182,38,11,43,292,26,16,13,079,23,20,23,296,34*71
$GPGSV,3,3,10,29,12,349,35,49,22,187,38*70
$GLGSV,3,1,09,70,43,079,25,71,80,305,26,72,30,269,31,73,17,133,17*67
$GLGSV,3,2,09,79,20,016,29,86,32,222,39,87,48,289,36,88,15,345,35*6F
$GLGSV,3,3,09,,,,39*66
$GNGLL,5939.93074,N,01046.66009,E,125020.00,A,A*76
$GNRMC,125021.00,A,5939.93073,N,01046.66004,E,0.027,,260824,,,A*6B
$GNVTG,,T,,M,0.027,N,0.051,K,A*3C
$GNGGA,125021.00,5939.93073,N,01046.66004,E,1,11,1.02,100.1,M,38.7,M,,*47
$GNGSA,A,3,29,07,20,06,09,11,,,,,,,1.89,1.02,1.59*13
$GNGSA,A,3,88,87,79,72,86,,,,,,,,1.89,1.02,1.59*18
$GPGSV,3,1,10,01,,,34,04,,,29,06,49,225,29,07,27,175,38*7C
$GPGSV,3,2,10,09,80,182,38,11,43,292,25,16,13,079,23,20,23,296,35*73
$GPGSV,3,3,10,29,12,349,36,49,22,187,37*7C
$GLGSV,3,1,09,70,43,079,25,71,80,305,27,72,30,269,32,73,17,133,17*65
$GLGSV,3,2,09,79,20,016,30,86,32,222,39,87,48,289,35,88,15,345,36*67
$GLGSV,3,3,09,,,,39*66
$GNGLL,5939.93073,N,01046.66004,E,125021.00,A,A*7D
$GNRMC,125022.00,A,5939.93072,N,01046.65996,E,0.053,,260824,,,A*6B
$GNVTG,,T,,M,0.053,N,0.098,K,A*3A
$GNGGA,125022.00,5939.93072,N,01046.65996,E,1,11,1.02,99.9,M,38.7,M,,*7D
$GNGSA,A,3,29,07,20,06,09,11,,,,,,,1.89,1.02,1.59*13
$GNGSA,A,3,88,87,79,72,86,,,,,,,,1.89,1.02,1.59*18
$GPGSV,3,1,10,01,,,32,04,,,29,06,49,225,29,07,27,175,38*7A
$GPGSV,3,2,10,09,80,182,39,11,43,292,25,16,13,079,23,20,23,296,34*73
$GPGSV,3,3,10,29,12,349,36,49,22,187,37*7C
$GLGSV,3,1,09,70,43,079,25,71,80,305,27,72,30,269,32,73,17,133,17*65
$GLGSV,3,2,09,79,20,016,30,86,32,222,39,87,48,289,36,88,15,345,35*67
$GLGSV,3,3,09,,,,40*68
$GNGLL,5939.93072,N,01046.65996,E,125022.00,A,A*7E
$GNRMC,125023.00,A,5939.93071,N,01046.66007,E,0.021,,260824,,,A*6E
$GNVTG,,T,,M,0.021,N,0.040,K,A*3A
$GNGGA,125023.00,5939.93071,N,01046.66007,E,1,11,1.02,99.9,M,38.7,M,,*7D
$GNGSA,A,3,29,07,20,06,09,11,,,,,,,1.89,1.02,1.59*13
$GNGSA,A,3,88,87,79,72,86,,,,,,,,1.89,1.02,1.59*18
$GPGSV,3,1,10,01,,,35,04,,,32,06,49,225,35,07,27,175,40*75
$GPGSV,3,2,10,09,80,182,32,11,43,292,35,16,13,079,26,20,23,296,38*70
$GPGSV,3,3,10,29,12,349,37,49,22,187,40*7D
$GLGSV,3,1,09,70,43,079,24,71,80,305,25,72,30,269,32,73,17,133,17*66
$GLGSV,3,2,09,79,20,016,29,86,32,222,39,87,48,289,35,88,15,345,36*6F
$GLGSV,3,3,09,,,,36*69
$GNGLL,5939.93071,N,01046.66007,E,125023.00,A,A*7E
$GNRMC,125024.00,A,5939.93073,N,01046.66012,E,0.042,,260824,,,A*6A
$GNVTG,,T,,M,0.042,N,0.077,K,A*3B
$GNGGA,125024.00,5939.93073,N,01046.66012,E,1,11,1.02,99.8,M,38.7,M,,*7D
$GNGSA,A,3,29,07,20,06,09,11,,,,,,,1.89,1.02,1.59*13
$GNGSA,A,3,88,87,79,72,86,,,,,,,,1.89,1.02,1.59*18
$GPGSV,3,1,10,01,,,35,04,,,30,06,49,225,31,07,27,175,39*7D
$GPGSV,3,2,10,09,80,182,36,11,43,292,30,16,13,079,26,20,23,296,38*71
$GPGSV,3,3,10,29,12,349,37,49,22,187,40*7D
$GLGSV,3,1,09,70,43,079,25,71,80,305,25,72,30,269,32,73,17,133,17*67
$GLGSV,3,2,09,79,20,016,29,86,32,222,39,87,48,289,35,88,15,345,36*6F
$GLGSV,3,3,09,,,,36*69
$GNGLL,5939.93073,N,01046.66012,E,125024.00,A,A*7F
$GNRMC,125025.00,A,5939.93074,N,01046.66015,E,0.044,,260824,,,A*6D
$GNVTG,,T,,M,0.044,N,0.081,K,A*34
$GNGGA,125025.00,5939.93074,N,01046.66015,E,1,11,1.02,99.8,M,38.7,M,,*7C
$GNGSA,A,3,29,07,20,06,09,11,,,,,,,1.89,1.02,1.59*13
$GNGSA,A,3,88,87,79,72,86,,,,,,,,1.89,1.02,1.59*18
$GPGSV,3,1,10,01,,,35,04,,,28,06,49,225,31,07,27,175,39*74
$GPGSV,3,2,10,09,80,182,37,11,43,292,30,16,13,079,25,20,23,296,38*73
$GPGSV,3,3,10,29,12,349,36,49,22,187,39*72
$GLGSV,3,1,09,70,43,079,25,71,80,305,27,72,30,269,32,73,17,133,19*6B
$GLGSV,3,2,09,79,20,016,29,86,32,222,39,87,48,289,34,88,15,345,36*6E
$GLGSV,3,3,09,,,,37*68
$GNGLL,5939.93074,N,01046.66015,E,125025.00,A,A*7E
$GNRMC,125026.00,A,5939.93074,N,01046.66017,E,0.037,,260824,,,A*68
$GNVTG,,T,,M,0.037,N,0.069,K,A*36
$GNGGA,125026.00,5939.93074,N,01046.66017,E,1,11,1.02,99.7,M,38.7,M,,*72
$GNGSA,A,3,29,07,20,06,09,11,,,,,,,1.89,1.02,1.59*13
$GNGSA,A,3,88,87,79,72,86,,,,,,,,1.89,1.02,1.59*18
$GPGSV,3,1,10,01,,,35,04,,,27,06,49,225,31,07,27,175,39*7B
$GPGSV,3,2,10,09,80,182,38,11,43,292,31,16,13,079,25,20,23,296,37*72
$GPGSV,3,3,10,29,12,349,35,49,22,187,40*7F
$GLGSV,3,1,09,70,43,079,25,71,80,305,29,72,30,269,32,73,17,133,20*6F
$GLGSV,3,2,09,79,20,016,30,86,32,222,39,87,48,289,34,88,15,345,36*66
$GLGSV,3,3,09,,,,37*68
$GNGLL,5939.93074,N,01046.66017,E,125026.00,A,A*7F
$GNRMC,125027.00,A,5939.93074,N,01046.66019,E,0.053,,260824,,,A*65
$GNVTG,,T,,M,0.053,N,0.098,K,A*3A
$GNGGA,125027.00,5939.93074,N,01046.66019,E,1,11,1.02,99.5,M,38.7,M,,*7F
$GNGSA,A,3,29,07,20,06,09,11,,,,,,,1.89,1.02,1.59*13
$GNGSA,A,3,88,87,79,72,86,,,,,,,,1.89,1.02,1.59*18
$GPGSV,3,1,10,01,,,35,04,,,26,06,49,225,31,07,27,175,39*7A
$GPGSV,3,2,10,09,80,182,38,11,43,292,30,16,13,079,25,20,23,296,37*73
$GPGSV,3,3,10,29,12,349,36,49,22,187,40*7C
$GLGSV,3,1,09,70,43,079,25,71,80,305,28,72,30,269,32,73,17,133,21*6F
$GLGSV,3,2,09,79,20,016,30,86,32,222,39,87,48,289,34,88,15,345,36*66
$GLGSV,3,3,09,,,,38*67
$GNGLL,5939.93074,N,01046.66019,E,125027.00,A,A*70
$GNRMC,125028.00,A,5939.93075,N,01046.66024,E,0.033,,260824,,,A*63
$GNVTG,,T,,M,0.033,N,0.060,K,A*3B
$GNGGA,125028.00,5939.93075,N,01046.66024,E,1,11,1.02,99.5,M,38.7,M,,*7F
$GNGSA,A,3,29,07,20,06,09,11,,,,,,,1.89,1.02,1.59*13
$GNGSA,A,3,88,87,79,72,86,,,,,,,,1.89,1.02,1.59*18
$GPGSV,3,1,10,01,,,35,04,,,25,06,49,225,32,07,27,175,39*7A
$GPGSV,3,2,10,09,80,182,38,11,43,292,31,16,13,079,26,20,23,296,37*71
$GPGSV,3,3,10,29,12,349,36,49,22,187,39*72
$GLGSV,3,1,09,70,43,079,24,71,80,305,30,72,30,269,32,73,17,133,22*64
$GLGSV,3,2,09,79,20,016,31,86,32,222,40,87,48,289,34,88,15,345,36*69
$GLGSV,3,3,09,,,,37*68
$GNGLL,5939.93075,N,01046.66024,E,125028.00,A,A*70
$GNRMC,125029.00,A,5939.93077,N,01046.66030,E,0.042,,260824,,,A*63
$GNVTG,,T,,M,0.042,N,0.078,K,A*34
$GNGGA,125029.00,5939.93077,N,01046.66030,E,1,11,1.02,99.4,M,38.7,M,,*78
$GNGSA,A,3,29,07,20,06,09,11,,,,,,,1.89,1.02,1.59*13
$GNGSA,A,3,88,87,79,72,86,,,,,,,,1.89,1.02,1.59*18
$GPGSV,3,1,10,01,,,35,04,,,25,06,49,225,33,07,27,175,39*7B
$GPGSV,3,2,10,09,80,182,38,11,43,292,30,16,13,079,26,20,23,296,38*7F
$GPGSV,3,3,10,29,12,349,36,49,22,187,39*72
$GLGSV,3,1,09,70,43,079,24,71,80,305,31,72,30,269,32,73,17,133,22*65
$GLGSV,3,2,09,79,20,016,31,86,32,222,40,87,48,289,34,88,15,345,36*69
$GLGSV,3,3,09,,,,37*68
$GNGLL,5939.93077,N,01046.66030,E,125029.00,A,A*76
$GNRMC,125030.00,A,5939.93077,N,01046.66030,E,0.155,,260824,,,A*6C
$GNVTG,,T,,M,0.155,N,0.287,K,A*31
$GNGGA,125030.00,5939.93077,N,01046.66030,E,1,11,1.02,99.4,M,38.7,M,,*70
$GNGSA,A,3,29,07,20,06,09,11,,,,,,,1.89,1.02,1.59*13
$GNGSA,A,3,88,87,79,72,86,,,,,,,,1.89,1.02,1.59*18
$GPGSV,3,1,10,01,,,35,04,,,31,06,49,225,32,07,27,175,39*7F
$GPGSV,3,2,10,09,80,182,38,11,43,292,28,16,13,079,27,20,23,296,37*78
$GPGSV,3,3,10,29,12,349,35,49,22,187,38*70
$GLGSV,3,1,09,70,43,079,24,71,80,305,30,72,30,269,32,73,17,133,21*67
$GLGSV,3,2,09,79,20,016,29,86,32,222,40,87,48,289,34,88,15,345,36*60
$GLGSV,3,3,09,,,,38*67
$GNGLL,5939.93077,N,01046.66030,E,125030.00,A,A*7E
$GNRMC,125031.00,A,5939.93078,N,01046.66018,E,0.414,,260824,,,A*68
$GNVTG,,T,,M,0.414,N,0.766,K,A*3B
$GNGGA,125031.00,5939.93078,N,01046.66018,E,1,11,1.02,99.6,M,38.7,M,,*76
$GNGSA,A,3,29,07,20,06,09,11,,,,,,,1.89,1.02,1.59*13
$GNGSA,A,3,88,87,79,72,86,,,,,,,,1.89,1.02,1.59*18
$GPGSV,3,1,10,01,,,32,04,,,34,06,49,225,36,07,27,175,38*78
$GPGSV,3,2,10,09,80,182,28,11,43,292,37,16,13,079,26,20,23,296,38*79
$GPGSV,3,3,10,29,12,349,39,49,22,187,40*73
$GLGSV,3,1,09,70,43,079,24,71,80,305,21,72,30,269,32,73,17,133,20*66
$GLGSV,3,2,09,79,20,016,36,86,32,222,36,87,48,289,38,88,15,345,32*67
$GLGSV,3,3,09,,,,36*69
$GNGLL,5939.93078,N,01046.66018,E,125031.00,A,A*7A
$GNRMC,125032.00,A,5939.93078,N,01046.66030,E,0.031,,260824,,,A*62
$GNVTG,,T,,M,0.031,N,0.057,K,A*3D
$GNGGA,125032.00,5939.93078,N,01046.66030,E,1,11,1.02,99.4,M,38.7,M,,*7D
$GNGSA,A,3,29,07,20,06,09,11,,,,,,,1.89,1.02,1.59*13
$GNGSA,A,3,88,87,79,72,86,,,,,,,,1.89,1.02,1.59*18
$GPGSV,3,1,10,01,,,32,04,,,32,06,49,225,34,07,27,175,39*7D
$GPGSV,3,2,10,09,80,182,33,11,43,292,38,16,13,079,30,20,23,296,38*7B
$GPGSV,3,3,10,29,12,349,38,49,22,187,40*72
$GLGSV,3,1,09,70,43,079,24,71,80,305,23,72,30,269,31,73,17,133,18*6C
$GLGSV,3,2,09,79,20,016,33,86,32,222,38,87,48,289,33,88,15,345,30*65
$GLGSV,3,3,09,,,,36*69
$GNGLL,5939.93078,N,01046.66030,E,125032.00,A,A*73
$GNRMC,125033.00,A,5939.93081,N,01046.66049,E,0.029,,260824,,,A*62
$GNVTG,,T,,M,0.029,N,0.053,K,A*30
$GNGGA,125033.00,5939.93081,N,01046.66049,E,1,11,1.02,99.4,M,38.7,M,,*74
$GNGSA,A,3,29,07,20,06,09,11,,,,,,,1.89,1.02,1.59*13
$GNGSA,A,3,88,87,79,72,86,,,,,,,,1.89,1.02,1.59*18
$GPGSV,3,1,10,01,,,32,04,,,32,06,49,225,33,07,27,175,39*7A
$GPGSV,3,2,10,09,80,182,34,11,43,292,37,16,13,079,30,20,23,296,38*73
$GPGSV,3,3,10,29,12,349,38,49,22,187,40*72
$GLGSV,3,1,09,70,43,079,25,71,80,305,24,72,30,269,31,73,17,133,17*65
$GLGSV,3,2,09,79,20,016,33,86,32,222,38,87,48,289,34,88,15,345,32*60
$GLGSV,3,3,09,,,,36*69
$GNGLL,5939.93081,N,01046.66049,E,125033.00,A,A*7A
$GNRMC,125034.00,A,5939.93085,N,01046.66059,E,0.057,,260824,,,A*69
$GNVTG,,T,,M,0.057,N,0.106,K,A*38
$GNGGA,125034.00,5939.93085,N,01046.66059,E,1,11,1.02,99.3,M,38.7,M,,*71
$GNGSA,A,3,29,07,20,06,09,11,,,,,,,1.89,1.02,1.59*13
$GNGSA,A,3,88,87,79,72,86,,,,,,,,1.89,1.02,1.59*18
$GPGSV,3,1,10,01,,,32,04,,,30,06,49,225,32,07,27,175,37*77
$GPGSV,3,2,10,09,80,182,35,11,43,292,37,16,13,079,31,20,23,296,37*7C
$GPGSV,3,3,10,29,12,349,38,49,22,187,39*7C
$GLGSV,3,1,09,70,43,079,25,71,80,305,26,72,30,269,31,73,17,133,17*67
$GLGSV,3,2,09,79,20,016,34,86,32,222,40,87,48,289,34,88,15,345,30*6A
$GLGSV,3,3,09,,,,37*68
$GNGLL,5939.93085,N,01046.66059,E,125034.00,A,A*78
$GNRMC,125035.00,A,5939.93085,N,01046.66066,E,0.056,,260824,,,A*65
$GNVTG,,T,,M,0.056,N,0.104,K,A*3B
$GNGGA,125035.00,5939.93085,N,01046.66066,E,1,11,1.02,99.2,M,38.7,M,,*7D
$GNGSA,A,3,29,07,20,06,09,11,,,,,,,1.89,1.02,1.59*13
$GNGSA,A,3,88,87,79,72,86,,,,,,,,1.89,1.02,1.59*18
$GPGSV,3,1,10,01,,,30,04,,,30,06,49,225,33,07,27,175,37*74
$GPGSV,3,2,10,09,80,182,35,11,43,292,37,16,13,079,33,20,23,296,37*7E
$GPGSV,3,3,10,29,12,349,38,49,22,187,38*7D
$GLGSV,3,1,09,70,43,079,25,71,80,305,24,72,30,269,31,73,17,133,18*6A
$GLGSV,3,2,09,79,20,016,34,86,32,222,38,87,48,289,33,88,15,345,28*6B
$GLGSV,3,3,09,,,,36*69
$GNGLL,5939.93085,N,01046.66066,E,125035.00,A,A*75
$GNRMC,125036.00,A,5939.93086,N,01046.66066,E,0.041,,260824,,,A*63
$GNVTG,,T,,M,0.041,N,0.076,K,A*39
$GNGGA,125036.00,5939.93086,N,01046.66066,E,1,11,1.02,99.2,M,38.7,M,,*7D
$GNGSA,A,3,29,07,20,06,09,11,,,,,,,1.89,1.02,1.59*13
$GNGSA,A,3,88,87,79,72,86,,,,,,,,1.89,1.02,1.59*18
$GPGSV,3,1,10,01,,,31,04,,,30,06,49,225,32,07,27,175,38*7B
$GPGSV,3,2,10,09,80,182,36,11,43,292,37,16,13,079,31,20,23,296,37*7F
$GPGSV,3,3,10,29,12,349,39,49,22,187,38*7C
$GLGSV,3,1,09,70,43,079,26,71,80,305,23,72,30,269,31,73,17,133,20*65
$GLGSV,3,2,09,79,20,016,33,86,32,222,40,87,48,289,33,88,15,345,28*63
$GLGSV,3,3,09,,,,37*68
$GNGLL,5939.93086,N,01046.66066,E,125036.00,A,A*75
$GNRMC,125037.00,A,5939.93089,N,01046.66073,E,0.067,,260824,,,A*6D
$GNVTG,,T,,M,0.067,N,0.124,K,A*3B
$GNGGA,125037.00,5939.93089,N,01046.66073,E,1,11,1.02,99.2,M,38.7,M,,*77
$GNGSA,A,3,29,07,20,06,09,11,,,,,,,1.89,1.02,1.59*13
$GNGSA,A,3,88,87,79,72,86,,,,,,,,1.89,1.02,1.59*18
$GPGSV,3,1,10,01,,,33,04,,,30,06,49,225,32,07,27,175,38*79
$GPGSV,3,2,10,09,80,182,35,11,43,292,37,16,13,079,30,20,23,296,37*7D
$GPGSV,3,3,10,29,12,349,39,49,22,187,38*7C
$GLGSV,3,1,09,70,43,079,26,71,80,305,22,72,30,269,30,73,17,133,21*64
$GLGSV,3,2,09,79,20,016,34,86,32,222,40,87,48,289,33,88,15,345,27*6B
$GLGSV,3,3,09,,,,38*67
$GNGLL,5939.93089,N,01046.66073,E,125037.00,A,A*7F
$GNRMC,125038.00,A,5939.93098,N,01046.66084,E,0.417,,260824,,,A*69
$GNVTG,,T,,M,0.417,N,0.772,K,A*3D
$GNGGA,125038.00,5939.93098,N,01046.66084,E,1,11,1.02,99.3,M,38.7,M,,*71
$GNGSA,A,3,29,07,20,06,09,11,,,,,,,1.89,1.02,1.59*13
$GNGSA,A,3,88,87,79,72,86,,,,,,,,1.89,1.02,1.59*18
$GPGSV,3,1,10,01,,,34,04,,,30,06,49,225,39,07,27,175,36*7B
$GPGSV,3,2,10,09,80,182,27,11,43,292,36,16,13,079,35,20,23,296,37*7A
$GPGSV,3,3,10,29,12,349,39,49,22,187,38*7C
$GLGSV,3,1,09,70,43,079,25,71,80,305,30,72,30,269,31,73,17,133,21*65
$GLGSV,3,2,09,79,20,016,31,86,32,222,38,87,48,289,33,88,15,345,35*62
$GLGSV,3,3,09,,,,36*69
$GNGLL,5939.93098,N,01046.66084,E,125038.00,A,A*78
$GNRMC,125039.00,A,5939.93110,N,01046.66072,E,0.527,,260824,,,A*62
$GNVTG,,T,,M,0.527,N,0.976,K,A*35
$GNGGA,125039.00,5939.93110,N,01046.66072,E,1,11,1.02,99.4,M,38.7,M,,*7F
$GNGSA,A,3,29,07,20,06,09,11,,,,,,,1.89,1.02,1.59*13
$GNGSA,A,3,88,87,79,72,86,,,,,,,,1.89,1.02,1.59*18
$GPGSV,3,1,10,01,,,33,04,,,34,06,49,225,36,07,27,175,36*77
$GPGSV,3,2,10,09,80,182,29,11,43,292,31,16,13,079,26,20,23,296,31*77
$GPGSV,3,3,10,29,12,349,37,49,22,187,38*72
$GLGSV,3,1,09,70,43,079,22,71,80,307,26,72,30,269,31,73,17,133,21*67
$GLGSV,3,2,09,79,20,016,31,86,32,222,36,87,48,289,33,88,15,345,32*6B
$GLGSV,3,3,09,,,,38*67
$GNGLL,5939.93110,N,01046.66072,E,125039.00,A,A*71
$GNRMC,125040.00,A,5939.93122,N,01046.66075,E,0.434,,260824,,,A*69
$GNVTG,,T,,M,0.434,N,0.803,K,A*35
$GNGGA,125040.00,5939.93122,N,01046.66075,E,1,11,1.02,99.7,M,38.7,M,,*74
$GNGSA,A,3,29,07,20,06,09,11,,,,,,,1.89,1.02,1.59*13
$GNGSA,A,3,88,87,79,72,86,,,,,,,,1.89,1.02,1.59*18
$GPGSV,3,1,10,01,,,33,04,,,30,06,49,225,38,07,27,175,36*7D
$GPGSV,3,2,10,09,80,182,28,11,43,292,31,16,13,079,27,20,23,296,26*71
$GPGSV,3,3,10,29,12,349,35,49,22,187,40*7F
$GLGSV,3,1,09,70,43,079,21,71,80,307,27,72,30,269,31,73,17,133,20*64
$GLGSV,3,2,09,79,20,016,24,86,32,222,36,87,48,289,33,88,15,345,33*6E
$GLGSV,3,3,09,,,,38*67
$GNGLL,5939.93122,N,01046.66075,E,125040.00,A,A*79
$GNRMC,125041.00,A,5939.93140,N,01046.66102,E,1.116,355.67,260824,,,A*75
$GNVTG,355.67,T,,M,1.116,N,2.067,K,A*25
$GNGGA,125041.00,5939.93140,N,01046.66102,E,1,11,1.02,100.1,M,38.7,M,,*47
$GNGSA,A,3,29,07,20,06,09,11,,,,,,,1.89,1.02,1.59*13
$GNGSA,A,3,88,87,79,72,86,,,,,,,,1.89,1.02,1.59*18
$GPGSV,3,1,11,01,,,33,04,,,39,06,49,225,25,07,27,175,29*77
$GPGSV,3,2,11,09,80,182,33,11,43,292,37,16,13,079,27,20,23,296,40*7C
$GPGSV,3,3,11,26,,,26,29,12,349,39,49,22,187,*76
$GLGSV,3,1,09,70,43,079,21,71,80,307,32,72,30,269,34,73,18,133,23*69
$GLGSV,3,2,09,79,20,016,37,86,32,222,37,87,48,289,38,88,15,345,38*6D
$GLGSV,3,3,09,,,,41*69
$GNGLL,5939.93140,N,01046.66102,E,125041.00,A,A*7D
$GNRMC,125042.00,A,5939.93139,N,01046.66194,E,2.271,85.39,260824,,,A*43
$GNVTG,85.39,T,,M,2.271,N,4.205,K,A*11
$GNGGA,125042.00,5939.93139,N,01046.66194,E,1,11,1.02,100.7,M,38.7,M,,*43
$GNGSA,A,3,29,07,20,06,09,11,,,,,,,1.89,1.02,1.59*13
$GNGSA,A,3,88,87,79,72,86,,,,,,,,1.89,1.02,1.59*18
$GPGSV,3,1,11,01,,,29,04,,,30,06,49,225,30,07,27,175,40*7E
$GPGSV,3,2,11,09,80,182,28,11,43,292,38,16,13,079,24,20,23,296,37*7A
$GPGSV,3,3,11,26,,,27,29,12,349,37,49,22,187,*79
$GLGSV,3,1,09,70,43,079,20,71,80,307,35,72,30,269,34,73,18,133,22*6E
$GLGSV,3,2,09,79,20,016,34,86,32,222,30,87,48,289,40,88,15,345,33*6D
$GLGSV,3,3,09,,,,37*68
$GNGLL,5939.93139,N,01046.66194,E,125042.00,A,A*7F
$GNRMC,125043.00,A,5939.93121,N,01046.66307,E,1.614,92.80,260824,,,A*43
$GNVTG,92.80,T,,M,1.614,N,2.989,K,A*18
$GNGGA,125043.00,5939.93121,N,01046.66307,E,1,11,1.02,100.8,M,38.7,M,,*4C
$GNGSA,A,3,29,07,20,06,09,11,,,,,,,1.89,1.02,1.59*13
$GNGSA,A,3,88,87,79,72,86,,,,,,,,1.89,1.02,1.59*18
$GPGSV,3,1,11,01,,,28,04,,,34,06,49,225,30,07,27,175,36*7A
$GPGSV,3,2,11,09,80,182,31,11,43,292,34,16,13,079,22,20,23,296,30*7F
$GPGSV,3,3,11,26,,,26,29,12,349,41,49,22,187,*79
$GLGSV,3,1,09,70,43,079,21,71,80,307,35,72,30,269,24,73,18,133,22*6E
$GLGSV,3,2,09,79,20,016,39,86,32,222,35,87,48,289,30,88,15,345,39*68
$GLGSV,3,3,09,,,,26*68
$GNGLL,5939.93121,N,01046.66307,E,125043.00,A,A*7F
$GNRMC,125044.00,A,5939.93107,N,01046.66419,E,2.036,93.25,260824,,,A*43
$GNVTG,93.25,T,,M,2.036,N,3.771,K,A*1B
$GNGGA,125044.00,5939.93107,N,01046.66419,E,1,11,1.02,101.0,M,38.7,M,,*4E
$GNGSA,A,3,29,07,20,06,09,11,,,,,,,1.89,1.02,1.59*13
$GNGSA,A,3,88,87,79,72,86,,,,,,,,1.89,1.02,1.59*18
$GPGSV,3,1,11,01,,,27,04,,,31,06,49,225,35,07,27,175,40*74
$GPGSV,3,2,11,09,80,182,26,11,43,292,29,16,13,079,20,20,23,296,28*7E
$GPGSV,3,3,11,26,,,24,29,12,349,40,49,22,187,*7A
$GLGSV,3,1,09,70,43,079,23,71,80,307,31,72,30,269,21,73,18,133,20*6F
$GLGSV,3,2,09,79,20,016,35,86,32,222,31,87,48,289,29,88,15,345,41*67
$GLGSV,3,3,09,,,,26*68
$GNGLL,5939.93107,N,01046.66419,E,125044.00,A,A*74
$GNRMC,125045.00,A,5939.93093,N,01046.66517,E,1.903,96.04,260824,,,A*4B
$GNVTG,96.04,T,,M,1.903,N,3.524,K,A*13
$GNGGA,125045.00,5939.93093,N,01046.66517,E,1,11,1.02,101.0,M,38.7,M,,*4C
$GNGSA,A,3,29,07,20,06,09,11,,,,,,,1.89,1.02,1.59*13
$GNGSA,A,3,88,87,79,72,86,,,,,,,,1.89,1.02,1.59*18
$GPGSV,3,1,11,01,,,25,04,,,31,06,49,225,34,07,27,175,37*77
$GPGSV,3,2,11,09,80,182,35,11,43,292,22,16,13,079,21,20,23,296,28*76
$GPGSV,3,3,11,26,,,20,29,12,349,42,49,22,187,*7C
$GLGSV,3,1,10,70,43,079,22,71,80,307,33,72,30,269,21,73,18,133,18*6F
$GLGSV,3,2,10,79,20,016,39,86,32,222,26,87,48,289,28,88,15,345,39*6B
$GLGSV,3,3,10,,,,26,,,,32*61
$GNGLL,5939.93093,N,01046.66517,E,125045.00,A,A*76
$GNRMC,125046.00,A,5939.93072,N,01046.66558,E,0.783,,260824,,,A*6E
$GNVTG,,T,,M,0.783,N,1.449,K,A*39
$GNGGA,125046.00,5939.93072,N,01046.66558,E,1,11,1.02,101.0,M,38.7,M,,*4B
$GNGSA,A,3,29,07,20,06,09,11,,,,,,,1.89,1.02,1.59*13
$GNGSA,A,3,88,87,79,72,86,,,,,,,,1.89,1.02,1.59*18
$GPGSV,3,1,11,01,,,22,04,,,35,06,49,225,30,07,27,175,37*70
$GPGSV,3,2,11,09,80,182,31,11,43,292,27,16,13,079,22,20,23,296,30*7D
$GPGSV,3,3,11,26,,,19,29,12,349,35,49,22,187,30*75
$GLGSV,3,1,10,70,43,079,20,71,80,307,33,72,30,269,22,73,18,133,14*62
$GLGSV,3,2,10,79,20,016,27,86,32,222,26,87,48,289,27,88,15,345,38*6A
$GLGSV,3,3,10,,,,31,,,,14*63
$GNGLL,5939.93072,N,01046.66558,E,125046.00,A,A*71
$GNRMC,125047.00,A,5939.93052,N,01046.66632,E,1.566,103.01,260824,,,A*77
$GNVTG,103.01,T,,M,1.566,N,2.899,K,A*2E
$GNGGA,125047.00,5939.93052,N,01046.66632,E,1,11,1.04,101.4,M,38.7,M,,*45
$GNGSA,A,3,29,07,20,06,09,11,,,,,,,1.96,1.04,1.66*17
$GNGSA,A,3,88,87,79,72,86,,,,,,,,1.96,1.04,1.66*1C
$GPGSV,3,1,11,01,,,20,04,,,28,06,49,225,39,07,27,175,38*78
$GPGSV,3,2,11,09,80,182,24,11,43,292,29,16,13,079,22,20,23,296,29*7F
$GPGSV,3,3,11,26,,,18,29,12,349,33,49,22,187,35*77
$GLGSV,3,1,10,70,43,079,18,71,80,307,36,72,30,269,25,73,18,133,15*6A
$GLGSV,3,2,10,79,20,016,26,86,32,222,34,87,48,289,28,88,15,345,39*66
$GLGSV,3,3,10,,,,37,,,,09*69
$GNGLL,5939.93052,N,01046.66632,E,125047.00,A,A*7D
$GNRMC,125048.00,A,5939.93021,N,01046.66689,E,1.251,,260824,,,A*62
$GNVTG,,T,,M,1.251,N,2.316,K,A*3C
$GNGGA,125048.00,5939.93021,N,01046.66689,E,1,11,1.04,101.5,M,38.7,M,,*4F
$GNGSA,A,3,29,07,20,06,09,11,,,,,,,1.96,1.04,1.66*17
$GNGSA,A,3,88,87,79,72,86,,,,,,,,1.96,1.04,1.66*1C
$GPGSV,3,1,11,01,,,20,04,,,20,06,49,225,35,07,27,175,38*7C
$GPGSV,3,2,11,09,80,182,31,11,43,292,28,16,13,079,25,20,23,296,29*7D
$GPGSV,3,3,11,26,,,19,29,12,349,33,49,22,187,37*74
$GLGSV,3,1,10,70,43,079,15,71,80,307,32,72,30,269,26,73,18,133,15*60
$GLGSV,3,2,10,79,20,016,26,86,32,222,35,87,48,289,32,88,15,345,36*63
$GLGSV,3,3,10,,,,31,,,,16*61
$GNGLL,5939.93021,N,01046.66689,E,125048.00,A,A*76
$GNRMC,125049.00,A,5939.93019,N,01046.66783,E,1.019,96.74,260824,,,A*4F
$GNVTG,96.74,T,,M,1.019,N,1.887,K,A*10
$GNGGA,125049.00,5939.93019,N,01046.66783,E,1,11,1.02,102.3,M,38.7,M,,*4D
$GNGSA,A,3,29,07,20,06,09,11,,,,,,,1.89,1.02,1.59*13
$GNGSA,A,3,88,87,79,72,86,,,,,,,,1.89,1.02,1.59*18
$GPGSV,3,1,11,01,,,20,04,,,21,06,49,225,42,07,27,175,39*7C
$GPGSV,3,2,11,09,80,182,31,11,43,292,37,16,13,079,25,20,23,296,36*7D
$GPGSV,3,3,11,26,,,20,29,12,349,30,49,22,187,39*73
$GLGSV,3,1,10,70,43,079,13,71,80,307,31,72,30,269,26,73,18,133,16*66
$GLGSV,3,2,10,79,20,016,24,86,32,222,42,87,48,289,33,88,15,345,32*64
$GLGSV,3,3,10,,,,34,,,,19*6B
$GNGLL,5939.93019,N,01046.66783,E,125049.00,A,A*77
$GNRMC,125050.00,A,5939.92993,N,01046.66766,E,0.734,,260824,,,A*6D
$GNVTG,,T,,M,0.734,N,1.360,K,A*39
$GNGGA,125050.00,5939.92993,N,01046.66766,E,1,11,1.02,102.2,M,38.7,M,,*45
$GNGSA,A,3,29,07,20,06,09,11,,,,,,,1.89,1.02,1.59*13
$GNGSA,A,3,88,87,79,72,86,,,,,,,,1.89,1.02,1.59*18
$GPGSV,3,1,11,01,,,19,04,,,20,06,49,225,32,07,27,175,32*7B
$GPGSV,3,2,11,09,80,182,34,11,43,292,33,16,13,079,26,20,23,296,26*7E
$GPGSV,3,3,11,26,,,18,29,12,349,30,49,22,187,39*78
$GLGSV,3,1,10,70,43,079,,71,80,307,30,72,30,269,31,73,18,133,17*62
$GLGSV,3,2,10,79,20,016,22,86,32,222,32,87,48,289,28,88,15,345,41*6B
$GLGSV,3,3,10,,,,35,,,,19*6A
$GNGLL,5939.92993,N,01046.66766,E,125050.00,A,A*7E
$GNRMC,125051.00,A,5939.92979,N,01046.66776,E,0.604,,260824,,,A*6B
$GNVTG,,T,,M,0.604,N,1.119,K,A*37
$GNGGA,125051.00,5939.92979,N,01046.66776,E,1,11,1.02,102.9,M,38.7,M,,*4A
$GNGSA,A,3,29,07,20,06,09,11,,,,,,,1.89,1.02,1.59*13
$GNGSA,A,3,88,87,79,72,86,,,,,,,,1.89,1.02,1.59*18
$GPGSV,3,1,11,01,,,19,04,,,20,06,49,225,38,07,27,175,31*72
$GPGSV,3,2,11,09,80,182,30,11,43,292,30,16,13,079,32,20,23,296,37*7C
$GPGSV,3,3,11,26,,,17,29,12,349,29,49,22,187,*75
$GLGSV,3,1,10,70,43,079,,71,80,307,26,72,30,269,34,73,18,133,15*62
$GLGSV,3,2,10,79,20,016,20,86,32,222,35,87,48,289,27,88,15,345,29*6F
$GLGSV,3,3,10,,,,35,,,,21*61
$GNGLL,5939.92979,N,01046.66776,E,125051.00,A,A*7A
$GNRMC,125052.00,A,5939.92973,N,01046.66746,E,0.758,,260824,,,A*69
$GNVTG,,T,,M,0.758,N,1.403,K,A*31
$GNGGA,125052.00,5939.92973,N,01046.66746,E,1,11,1.02,103.3,M,38.7,M,,*4B
$GNGSA,A,3,29,07,20,06,09,11,,,,,,,1.89,1.02,1.59*13
$GNGSA,A,3,88,87,79,72,86,,,,,,,,1.89,1.02,1.59*18
$GPGSV,3,1,11,01,,,19,04,,,20,06,49,225,33,07,27,175,26*7F
$GPGSV,3,2,11,09,80,182,25,11,43,292,36,16,13,079,25,20,23,296,30*7F
$GPGSV,3,3,11,26,,,16,29,12,349,24,49,22,187,*79
$GLGSV,3,1,10,70,43,079,,71,80,307,24,72,30,269,26,73,18,133,17*61
$GLGSV,3,2,10,79,20,016,20,86,32,222,37,87,48,289,28,88,15,345,28*63
$GLGSV,3,3,10,,,,33,,,,19*6C
$GNGLL,5939.92973,N,01046.66746,E,125052.00,A,A*70
$GNRMC,125053.00,A,5939.92980,N,01046.66708,E,0.752,,260824,,,A*64
$GNVTG,,T,,M,0.752,N,1.392,K,A*34
$GNGGA,125053.00,5939.92980,N,01046.66708,E,1,11,1.02,103.7,M,38.7,M,,*48
$GNGSA,A,3,29,07,20,06,09,11,,,,,,,1.89,1.02,1.59*13
$GNGSA,A,3,88,87,79,72,86,,,,,,,,1.89,1.02,1.59*18
$GPGSV,3,1,11,01,,,18,04,,,18,06,49,225,19,07,27,175,24*7F
$GPGSV,3,2,11,09,80,182,23,11,43,292,26,16,13,079,23,20,23,296,28*77
$GPGSV,3,3,11,26,,,16,29,12,349,25,49,22,187,*78
$GLGSV,3,1,10,70,43,079,,71,80,307,23,72,30,269,24,73,18,133,16*65
$GLGSV,3,2,10,79,20,016,19,86,32,222,23,87,48,288,27,88,15,345,28*62
$GLGSV,3,3,10,,,,28,,,,19*66
$GNGLL,5939.92980,N,01046.66708,E,125053.00,A,A*77
$GNRMC,125054.00,A,5939.93001,N,01046.66745,E,1.308,,260824,,,A*61
$GNVTG,,T,,M,1.308,N,2.423,K,A*30
$GNGGA,125054.00,5939.93001,N,01046.66745,E,1,11,1.02,103.9,M,38.7,M,,*49
$GNGSA,A,3,29,07,20,06,09,11,,,,,,,1.89,1.02,1.59*13
$GNGSA,A,3,88,87,79,72,86,,,,,,,,1.89,1.02,1.59*18
$GPGSV,3,1,11,01,,,16,04,,,17,06,49,225,28,07,27,175,20*78
$GPGSV,3,2,11,09,80,182,21,11,43,292,31,16,13,079,19,20,23,296,28*7A
$GPGSV,3,3,11,26,,,14,29,12,349,22,49,22,187,*7D
$GLGSV,3,1,10,70,43,079,,71,80,307,19,72,30,269,21,73,18,133,14*6B
$GLGSV,3,2,10,79,20,016,16,86,32,222,20,87,48,288,26,88,15,345,26*61
$GLGSV,3,3,10,,,,26,,,,19*68
$GNGLL,5939.93001,N,01046.66745,E,125054.00,A,A*78
$GNRMC,125055.00,A,5939.93013,N,01046.66804,E,0.737,,260824,,,A*60
$GNVTG,,T,,M,0.737,N,1.366,K,A*3C
$GNGGA,125055.00,5939.93013,N,01046.66804,E,1,11,1.02,104.6,M,38.7,M,,*49
$GNGSA,A,3,29,07,20,06,09,11,,,,,,,1.89,1.02,1.59*13
$GNGSA,A,3,88,87,79,72,86,,,,,,,,1.89,1.02,1.59*18
$GPGSV,3,1,11,01,,,13,04,,,14,06,49,224,20,07,27,175,17*73
$GPGSV,3,2,11,09,80,182,19,11,43,292,25,16,13,079,18,20,23,296,28*75
$GPGSV,3,3,11,26,,,12,29,12,349,21,49,22,187,*78
$GLGSV,3,1,10,70,43,079,,71,80,307,19,72,30,269,19,73,18,133,12*66
$GLGSV,3,2,10,79,20,016,13,86,32,222,20,87,48,288,24,88,15,345,24*64
$GLGSV,3,3,10,,,,24,,,,18*6B
$GNGLL,5939.93013,N,01046.66804,E,125055.00,A,A*70
$GNRMC,125056.00,A,5939.93006,N,01046.66849,E,0.531,,260824,,,A*6A
$GNVTG,,T,,M,0.531,N,0.984,K,A*3F
$GNGGA,125056.00,5939.93006,N,01046.66849,E,1,10,1.19,104.9,M,38.7,M,,*43
$GNGSA,A,3,29,07,20,06,09,11,,,,,,,1.99,1.19,1.59*18
$GNGSA,A,3,88,87,72,86,,,,,,,,,1.99,1.19,1.59*1D
$GPGSV,3,1,11,01,,,11,04,,,12,06,49,224,20,07,28,174,15*7B
$GPGSV,3,2,11,09,80,182,18,11,43,292,24,16,13,079,17,20,23,296,26*74
$GPGSV,3,3,11,26,,,09,29,12,349,18,49,22,187,*78
$GLGSV,3,1,10,70,43,079,,71,80,307,16,72,30,269,19,73,18,133,09*63
$GLGSV,3,2,10,79,20,016,10,86,32,222,17,87,48,288,22,88,15,345,20*61
$GLGSV,3,3,10,,,,23,,,,17*63
$GNGLL,5939.93006,N,01046.66849,E,125056.00,A,A*7E
$GNRMC,125057.00,A,5939.92999,N,01046.66928,E,1.469,,260824,,,A*6E
$GNVTG,,T,,M,1.469,N,2.721,K,A*31
$GNGGA,125057.00,5939.92999,N,01046.66928,E,1,11,1.02,104.8,M,38.7,M,,*40
$GNGSA,A,3,29,07,20,06,09,11,,,,,,,1.89,1.02,1.59*13
$GNGSA,A,3,88,87,79,72,86,,,,,,,,1.89,1.02,1.59*18
$GPGSV,3,1,11,01,,,11,04,,,13,06,49,224,20,07,28,174,14*7B
$GPGSV,3,2,11,09,80,180,18,11,43,292,22,16,13,079,16,20,23,296,24*73
$GPGSV,3,3,11,26,,,10,29,12,349,18,49,22,187,*70
$GLGSV,3,1,10,70,43,079,,71,80,307,15,72,30,269,18,73,18,133,08*60
$GLGSV,3,2,10,79,20,016,11,86,32,222,17,87,48,288,19,88,15,345,18*63
$GLGSV,3,3,10,,,,22,,,,16*63
$GNGLL,5939.92999,N,01046.66928,E,125057.00,A,A*77
$GNRMC,125058.00,A,5939.93032,N,01046.66859,E,1.406,,260824,,,A*66
$GNVTG,,T,,M,1.406,N,2.604,K,A*3E
$GNGGA,125058.00,5939.93032,N,01046.66859,E,1,10,1.19,104.2,M,38.7,M,,*40
$GNGSA,A,3,29,07,20,06,09,11,,,,,,,1.99,1.19,1.59*18
$GNGSA,A,3,88,87,72,86,,,,,,,,,1.99,1.19,1.59*1D
$GPGSV,3,1,11,01,,,13,04,,,13,06,49,224,20,07,28,174,11*7C
$GPGSV,3,2,11,09,80,180,19,11,43,292,20,16,13,079,14,20,23,296,22*74
$GPGSV,3,3,11,26,,,11,29,12,349,15,49,22,187,*7C
$GLGSV,3,1,10,70,43,079,,71,80,307,14,72,30,269,17,73,18,133,08*6E
$GLGSV,3,2,10,79,20,016,09,86,32,222,16,87,48,288,14,88,15,345,16*68
$GLGSV,3,3,10,,,,19,,,,17*6A
$GNGLL,5939.93032,N,01046.66859,E,125058.00,A,A*76
$GNRMC,125059.00,A,5939.93036,N,01046.66903,E,0.727,,260824,,,A*6C
$GNVTG,,T,,M,0.727,N,1.346,K,A*3F
$GNGGA,125059.00,5939.93036,N,01046.66903,E,1,10,1.19,104.4,M,38.7,M,,*4D
$GNGSA,A,3,29,07,20,06,09,11,,,,,,,1.99,1.19,1.59*18
$GNGSA,A,3,88,87,72,86,,,,,,,,,1.99,1.19,1.59*1D
$GPGSV,3,1,11,01,,,14,04,,,14,06,49,224,20,07,28,174,14*79
$GPGSV,3,2,11,09,80,180,20,11,43,292,21,16,13,079,11,20,23,296,21*79
$GPGSV,3,3,11,26,,,11,29,12,349,14,49,22,187,*7D
$GLGSV,3,1,10,70,43,079,,71,80,307,16,72,30,269,15,73,18,133,*66
$GLGSV,3,2,10,79,20,016,08,86,32,222,15,87,48,288,15,88,15,345,15*68
$GLGSV,3,3,10,,,,18,,,,17*6B
$GNGLL,5939.93036,N,01046.66903,E,125059.00,A,A*7D
$GNRMC,125100.00,A,5939.92975,N,01046.66880,E,1.563,,260824,,,A*67
$GNVTG,,T,,M,1.563,N,2.895,K,A*3A
$GNGGA,125100.00,5939.92975,N,01046.66880,E,1,10,1.19,103.7,M,38.7,M,,*41
$GNGSA,A,3,29,07,20,06,09,11,,,,,,,1.99,1.19,1.59*18
$GNGSA,A,3,88,87,72,86,,,,,,,,,1.99,1.19,1.59*1D
